"osm_id","name","highway","ref","junction_type","longitude","latitude"
"104471","Berrygrove","motorway_junction","5","motorway_junction",-0.3729253,51.6757058
"104683","Wickham Interchange","motorway_junction","14","motorway_junction",-1.4754251,51.4510262
"109608","Hyde Park Corner","motorway_junction",NA,"motorway_junction",-0.1518033,51.501999
"109903","Hammersmith Flyover","motorway_junction",NA,"motorway_junction",-0.2327062,51.491097
"132496","Goresbrook","motorway_junction",NA,"motorway_junction",0.1423988,51.5275105
"132510","Ferry Lane","motorway_junction",NA,"motorway_junction",0.1916478,51.5105775
"132552","Orsett Cock","motorway_junction",NA,"motorway_junction",0.3895643,51.508548
"132619","Boreham","motorway_junction","19","motorway_junction",0.5260734,51.7595835
"132627","Sandon Interchange","motorway_junction","18","motorway_junction",0.5276746,51.7236832
"132794",NA,"motorway_junction",NA,"motorway_junction",-0.7050255,51.1456259
"134031","Halfway House","motorway_junction",NA,"motorway_junction",0.3698237,51.5807574
"134116",NA,"motorway_junction","5","motorway_junction",0.0799188,51.6378348
"194178",NA,"motorway_junction",NA,"motorway_junction",-0.564757,51.2500623
"194193","Ripley Services","motorway_junction",NA,"motorway_junction",-0.4863358,51.2958403
"194534","Hinksey Hill","motorway_junction",NA,"motorway_junction",-1.256121,51.7244901
"194627","East Ilsley Interchange","motorway_junction",NA,"motorway_junction",-1.2937256,51.5381684
"194636",NA,"motorway_junction",NA,"motorway_junction",-1.0856496,52.0622794
"195801","Bignells Corner","motorway_junction","1","motorway_junction",-0.2335789,51.6802971
"195820","Bignells Corner","motorway_junction","1","motorway_junction",-0.2254679,51.6911901
"195870","Potters Bar","motorway_junction","24","motorway_junction",-0.175575,51.6849509
"195967","Waltham Cross","motorway_junction","25","motorway_junction",-0.0589046,51.6825761
"196129","Henly's Corner","motorway_junction",NA,"motorway_junction",-0.1981203,51.5897531
"196286",NA,"motorway_junction",NA,"motorway_junction",-0.1735758,51.6011914
"196294",NA,"motorway_junction",NA,"motorway_junction",-0.1737096,51.6012964
"196353",NA,"motorway_junction",NA,"motorway_junction",-0.1584883,51.6057829
"196474","Great Cambridge Road Roundabout","motorway_junction",NA,"motorway_junction",-0.0913841,51.6163647
"196573","Henly's Corner","motorway_junction",NA,"motorway_junction",-0.2046098,51.5888729
"196637","Brent Cross Interchange","motorway_junction",NA,"motorway_junction",-0.2159043,51.5777879
"196963","Roehyde","motorway_junction","3","motorway_junction",-0.2435652,51.7484894
"196984","Roehyde","motorway_junction","3","motorway_junction",-0.243832,51.7574079
"197169",NA,"motorway_junction",NA,"motorway_junction",-0.2753892,51.5426496
"197175",NA,"motorway_junction",NA,"motorway_junction",-0.2759637,51.5415806
"197181",NA,"motorway_junction",NA,"motorway_junction",-0.2815069,51.5382816
"197198",NA,"motorway_junction",NA,"motorway_junction",-0.2907113,51.5334369
"197222","Hanger Lane","motorway_junction",NA,"motorway_junction",-0.2999555,51.5309591
"197239","Perivale","motorway_junction",NA,"motorway_junction",-0.3223379,51.5332407
"197271","Perivale","motorway_junction",NA,"motorway_junction",-0.3345105,51.5341387
"197281",NA,"motorway_junction",NA,"motorway_junction",-0.2878334,51.5287094
"197317",NA,"motorway_junction",NA,"motorway_junction",-0.2763504,51.5265797
"197446",NA,"motorway_junction",NA,"motorway_junction",-0.2294569,51.5149555
"197754","Waltham Abbey","motorway_junction","26","motorway_junction",0.02341,51.6779988
"197761","Waltham Abbey","motorway_junction","26","motorway_junction",0.0401229,51.6806971
"200285","Five Ways Corner","motorway_junction","2","motorway_junction",-0.2395795,51.6039885
"202077","Staples Corner","motorway_junction","1","motorway_junction",-0.2295886,51.5731167
"202118","Target Roundabout","motorway_junction",NA,"motorway_junction",-0.3730238,51.5412215
"202188","Ossie Garvin Roundabout","motorway_junction",NA,"motorway_junction",-0.4030655,51.5128604
"202324",NA,"motorway_junction",NA,"motorway_junction",-0.4098236,51.4223286
"202412","Thorpe","motorway_junction","12","motorway_junction",-0.5343109,51.3951974
"202471","Addlestone","motorway_junction","11","motorway_junction",-0.511641,51.3789858
"202544","Ripley Services","motorway_junction",NA,"motorway_junction",-0.4923619,51.2902544
"202587",NA,"motorway_junction",NA,"motorway_junction",-0.5241449,51.2748412
"202952","Merstham","motorway_junction","7","motorway_junction",-0.1439495,51.2653651
"203037","Merstham","motorway_junction","8","motorway_junction",-0.1351619,51.2697784
"203172","Clacket Lane Services","motorway_junction",NA,"motorway_junction",0.0472077,51.2728292
"203205","Chevening","motorway_junction","5","motorway_junction",0.1309637,51.2881756
"203227","Chevening","motorway_junction","5","motorway_junction",0.1439674,51.2867715
"203293","Chevening","motorway_junction","5","motorway_junction",0.1498708,51.3018328
"203758","Swanley","motorway_junction","3","motorway_junction",0.1887215,51.3817617
"203808","Darenth","motorway_junction",NA,"motorway_junction",0.2304247,51.4258348
"204109","Mardyke","motorway_junction","30","motorway_junction",0.267417,51.4898982
"204139","Mardyke","motorway_junction",NA,"motorway_junction",0.26187,51.495788
"204424","Cranham","motorway_junction","29","motorway_junction",0.2877508,51.5680484
"204444","Cranham","motorway_junction",NA,"motorway_junction",0.2936018,51.5740598
"204470","Brook Street","motorway_junction","28","motorway_junction",0.257755,51.6128383
"204515","Theydon","motorway_junction","6","motorway_junction",0.119763,51.6730469
"204520","Theydon","motorway_junction","6","motorway_junction",0.131259,51.6841813
"204703","Bignells Corner","motorway_junction","23","motorway_junction",-0.234578,51.6900768
"205418","Denham","motorway_junction","16","motorway_junction",-0.5307181,51.5599981
"205491","Thorney","motorway_junction","4B","motorway_junction",-0.5056244,51.4942264
"205498","Thorney","motorway_junction","4B","motorway_junction",-0.4793697,51.4943134
"205516","Thorney","motorway_junction","15","motorway_junction",-0.4961763,51.4889157
"205900","Heathrow","motorway_junction","4","motorway_junction",-0.4605209,51.4959028
"205910","Heathrow","motorway_junction","4","motorway_junction",-0.44417,51.4948373
"205916","Cranford Parkway","motorway_junction","3","motorway_junction",-0.4171279,51.4928658
"205979","Thorpe","motorway_junction","12","motorway_junction",-0.539558,51.4054517
"208214",NA,"motorway_junction","14","motorway_junction",-0.6934536,52.056198
"208270","Toddington","motorway_junction","12","motorway_junction",-0.5150618,51.9566027
"208292","Chalton Interchange","motorway_junction","11A","motorway_junction",-0.4867404,51.9151075
"208329","Friar's Wash","motorway_junction","9","motorway_junction",-0.416435,51.8155541
"208361","Berrygrove","motorway_junction","5","motorway_junction",-0.3631767,51.6685842
"208427","Leagrave Interchange","motorway_junction","11","motorway_junction",-0.4708826,51.8978802
"208451",NA,"motorway_junction",NA,"motorway_junction",-0.5056661,51.9507755
"208486","Ridgmont Interchange","motorway_junction","13","motorway_junction",-0.6108931,52.0284875
"208515",NA,"motorway_junction","14","motorway_junction",-0.7063551,52.0615742
"209213","Cooks Ferry","motorway_junction",NA,"motorway_junction",-0.0418559,51.6124185
"209231","Crooked Billet Interchange","motorway_junction",NA,"motorway_junction",-0.0222418,51.6040066
"209251","Waterworks","motorway_junction",NA,"motorway_junction",0.0056772,51.5977009
"209351",NA,"motorway_junction",NA,"motorway_junction",0.0625729,51.5583221
"210552","Ferry Lane","motorway_junction",NA,"motorway_junction",0.1793067,51.5143242
"210562","Wennington","motorway_junction",NA,"motorway_junction",0.2224956,51.5003804
"211225","Birchanger Green","motorway_junction","8","motorway_junction",0.1944441,51.8655128
"211237","Birchanger Green","motorway_junction","8","motorway_junction",0.2027643,51.8773239
"212330","Target Roundabout","motorway_junction",NA,"motorway_junction",-0.3858008,51.5456663
"212340","Polish War Memorial","motorway_junction",NA,"motorway_junction",-0.4066937,51.5480075
"212345","Hillingdon Circus","motorway_junction",NA,"motorway_junction",-0.4333658,51.5493971
"212388","Swakeleys Roundabout","motorway_junction",NA,"motorway_junction",-0.4741425,51.5594472
"212531","Knaves Beech","motorway_junction","3","motorway_junction",-0.6882159,51.6023878
"212600","Handy Cross","motorway_junction","4","motorway_junction",-0.7767291,51.6110308
"213074","Stokenchurch","motorway_junction","5","motorway_junction",-0.917511,51.6619452
"213199",NA,"motorway_junction",NA,"motorway_junction",-1.1045968,51.7391647
"213210","Wheatley","motorway_junction","8A","motorway_junction",-1.0928192,51.7380038
"213213","Wheatley","motorway_junction","8A","motorway_junction",-1.0990001,51.7434685
"213229",NA,"motorway_junction",NA,"motorway_junction",-1.1090079,51.741771
"213283",NA,"motorway_junction",NA,"motorway_junction",-1.140485,51.7523196
"213534","Hinksey Hill","motorway_junction",NA,"motorway_junction",-1.2627114,51.7305232
"213577","Botley Interchange","motorway_junction",NA,"motorway_junction",-1.2958746,51.7594835
"213618","Peartree","motorway_junction",NA,"motorway_junction",-1.288654,51.7915077
"213764",NA,"motorway_junction",NA,"motorway_junction",-1.204767,51.7273243
"213796",NA,"motorway_junction",NA,"motorway_junction",-1.2281502,51.7748768
"213799",NA,"motorway_junction",NA,"motorway_junction",-1.2332814,51.777342
"214440","Banbury","motorway_junction","11","motorway_junction",-1.3166215,52.077308
"214445","Banbury","motorway_junction","11","motorway_junction",-1.3104629,52.0677418
"214562","Wendlebury","motorway_junction","9","motorway_junction",-1.2006229,51.8735606
"215742",NA,"motorway_junction","9","motorway_junction",0.1911928,52.0550965
"216271","Stump Cross","motorway_junction","9A","motorway_junction",0.1964386,52.0801946
"216276","Stump Cross","motorway_junction","9A","motorway_junction",0.189133,52.0715931
"218574","Langley Roundabout","motorway_junction","5","motorway_junction",-0.5348166,51.4928925
"218592","Langley Roundabout","motorway_junction","5","motorway_junction",-0.5498908,51.4899483
"218631","Tuns Lane","motorway_junction","6","motorway_junction",-0.6096007,51.5020099
"218671","Huntercombe Spur","motorway_junction","7","motorway_junction",-0.6593618,51.5119181
"218879","Winnersh","motorway_junction","10","motorway_junction",-0.8446761,51.4358868
"218891","Winnersh","motorway_junction",NA,"motorway_junction",-0.860902,51.4337001
"218913","Winnersh","motorway_junction","10","motorway_junction",-0.8624459,51.4270206
"222443","Brent Cross Interchange","motorway_junction",NA,"motorway_junction",-0.2217295,51.5782531
"223517","Heston Services","motorway_junction",NA,"motorway_junction",-0.3873169,51.4877314
"225183","Brentford","motorway_junction","2","motorway_junction",-0.2997293,51.4914468
"238766","Bow Interchange","motorway_junction",NA,"motorway_junction",-0.0176556,51.5313327
"244496","Berrygrove","motorway_junction",NA,"motorway_junction",-0.3658233,51.6677582
"245148",NA,"motorway_junction",NA,"motorway_junction",-0.4256983,51.6840624
"253769","Trueloves","motorway_junction","13","motorway_junction",0.3758118,51.6706296
"253806","Stock Road Interchange","motorway_junction","16","motorway_junction",0.4706988,51.6873973
"253813","Howe Green Interchange","motorway_junction","17","motorway_junction",0.51271,51.7001082
"255303","Coleman's","motorway_junction","22","motorway_junction",0.6530644,51.8078951
"255307","Kelvedon South","motorway_junction","23","motorway_junction",0.6829185,51.8246837
"255368","Spring Lane","motorway_junction","27","motorway_junction",0.8462987,51.891764
"255536",NA,"motorway_junction",NA,"motorway_junction",0.9611544,51.9520038
"255549",NA,"motorway_junction","30","motorway_junction",0.9869971,51.974295
"255591","Copdock","motorway_junction","55","motorway_junction",1.1049146,52.0331018
"255603","Copdock","motorway_junction","55","motorway_junction",1.0959655,52.0397394
"255608","Wherstead","motorway_junction","56","motorway_junction",1.1339791,52.024819
"255611","Wherstead","motorway_junction","56","motorway_junction",1.1446675,52.0245037
"255627","Nacton","motorway_junction","57","motorway_junction",1.2138426,52.0256082
"269547","Bullington Cross","motorway_junction",NA,"motorway_junction",-1.3430538,51.1757977
"273688","Chipstead","motorway_junction",NA,"motorway_junction",0.1507248,51.2796705
"273690","Chipstead","motorway_junction",NA,"motorway_junction",0.14785,51.2821095
"275784",NA,"motorway_junction",NA,"motorway_junction",0.0111613,51.49007
"278399","Loddon Bridge","motorway_junction",NA,"motorway_junction",-0.895397,51.4393438
"278586","Sutton Seeds Roundabout","motorway_junction",NA,"motorway_junction",-0.9354665,51.4528649
"279165",NA,"motorway_junction",NA,"motorway_junction",-0.9741314,51.4505539
"279171",NA,"motorway_junction",NA,"motorway_junction",-0.976485,51.4508276
"292444","Tibbet's Corner","motorway_junction",NA,"motorway_junction",-0.2268358,51.4467807
"295274","Chiswick Roundabout","motorway_junction","1","motorway_junction",-0.2771888,51.4893105
"295836","Apex Corner","motorway_junction",NA,"motorway_junction",-0.3851506,51.4351664
"297309","Frimley","motorway_junction","4","motorway_junction",-0.7540759,51.3172021
"297408","Minley","motorway_junction","4A","motorway_junction",-0.8022412,51.3020158
"297786","Black Dam Roundabout","motorway_junction","6","motorway_junction",-1.0598659,51.2594748
"297984","Dummer","motorway_junction","7","motorway_junction",-1.1516095,51.2205028
"298030","Popham","motorway_junction","8","motorway_junction",-1.1732124,51.2118313
"298059","Popham","motorway_junction",NA,"motorway_junction",-1.212019,51.198598
"298087",NA,"motorway_junction",NA,"motorway_junction",-1.2306004,51.1938126
"298098",NA,"motorway_junction",NA,"motorway_junction",-1.2526137,51.1899831
"298317",NA,"motorway_junction",NA,"motorway_junction",-1.2591291,51.1906347
"298386","Bullington Cross","motorway_junction",NA,"motorway_junction",-1.3339648,51.1751621
"302308","Black Dam Roundabout","motorway_junction","6","motorway_junction",-1.0709011,51.2554745
"302458","Winchester Services","motorway_junction",NA,"motorway_junction",-1.2555456,51.1163559
"302460","Winchester Services","motorway_junction",NA,"motorway_junction",-1.2528103,51.1202987
"302613","Three Mile Cross","motorway_junction","11","motorway_junction",-0.9785269,51.4144207
"302834",NA,"motorway_junction",NA,"motorway_junction",-1.0279523,51.4226144
"302841","Theale","motorway_junction","12","motorway_junction",-1.0602021,51.4366613
"302846","Theale","motorway_junction","12","motorway_junction",-1.0701279,51.4423198
"306476","Chevening","motorway_junction","5","motorway_junction",0.1448845,51.2922524
"306627","Addington","motorway_junction","3","motorway_junction",0.3653747,51.3082236
"306787","Wrotham Heath","motorway_junction","2A","motorway_junction",0.3439894,51.3039265
"306864","Wrotham Heath","motorway_junction","2A","motorway_junction",0.3255942,51.3006558
"307447","Swanley","motorway_junction","1","motorway_junction",0.1872165,51.3896629
"307516","Leybourne","motorway_junction","4","motorway_junction",0.4303063,51.3072294
"307566","Aylesford","motorway_junction","5","motorway_junction",0.4784684,51.2985391
"307639","Detling","motorway_junction","7","motorway_junction",0.5429454,51.2896396
"307657","Detling","motorway_junction","7","motorway_junction",0.5595555,51.2881053
"307699","Hollingbourne","motorway_junction","8","motorway_junction",0.6093955,51.2670125
"307707","Hollingbourne","motorway_junction","8","motorway_junction",0.6193851,51.2605755
"308083","Drovers","motorway_junction","9","motorway_junction",0.8624439,51.1639491
"308657","Alkham Valley","motorway_junction",NA,"motorway_junction",1.1703719,51.1035075
"308701","Merrals Shaw","motorway_junction","2","motorway_junction",0.4711515,51.3800628
"308967","Perry Court","motorway_junction","6","motorway_junction",0.893105,51.2999272
"308986","Brenley Corner","motorway_junction","7","motorway_junction",0.9203148,51.298557
"309039",NA,"motorway_junction",NA,"motorway_junction",0.4169708,51.401126
"309049",NA,"motorway_junction",NA,"motorway_junction",0.4003048,51.4038912
"309144","Bean Interchange","motorway_junction",NA,"motorway_junction",0.2880407,51.4307169
"309159","Bean Interchange","motorway_junction",NA,"motorway_junction",0.2734558,51.430384
"309165","Darenth","motorway_junction",NA,"motorway_junction",0.2533463,51.4273682
"309194","Dartford Heath","motorway_junction",NA,"motorway_junction",0.1843066,51.4339777
"309212","Dartford Heath","motorway_junction",NA,"motorway_junction",0.1725292,51.4399935
"309220","Black Prince","motorway_junction",NA,"motorway_junction",0.1574692,51.4459156
"309241","Black Prince","motorway_junction",NA,"motorway_junction",0.153595,51.447734
"309286","Chieveley Interchange","motorway_junction","13","motorway_junction",-1.3209789,51.4529615
"309342","Wickham Interchange","motorway_junction","14","motorway_junction",-1.4908954,51.4555944
"309798","Chieveley Interchange","motorway_junction",NA,"motorway_junction",-1.3098427,51.4594344
"309799","Chieveley Interchange","motorway_junction",NA,"motorway_junction",-1.3165442,51.4452156
"309812","Chalky Lane Roundabout","motorway_junction",NA,"motorway_junction",-1.3102318,51.4509974
"311029","Hooley","motorway_junction","7","motorway_junction",-0.1551427,51.283541
"315843","Gatwick","motorway_junction","9","motorway_junction",-0.1319228,51.1628115
"315851","Gatwick","motorway_junction","9","motorway_junction",-0.1357566,51.1594391
"315982","Crawley","motorway_junction","10","motorway_junction",-0.1419612,51.1288393
"316054","Balcombe Road","motorway_junction","10A","motorway_junction",-0.1417576,51.1062555
"323752","Poyle","motorway_junction","14","motorway_junction",-0.5031811,51.4796198
"328430","Charlie Brown's","motorway_junction","4","motorway_junction",0.0438496,51.5969619
"328482",NA,"motorway_junction",NA,"motorway_junction",0.0657875,51.6269544
"376291",NA,"motorway_junction",NA,"motorway_junction",-1.4974406,51.7754965
"395980",NA,"motorway_junction",NA,"motorway_junction",-1.3133166,51.7525992
"400296",NA,"motorway_junction",NA,"motorway_junction",-0.2163834,52.0318315
"401589","Letchworth Gate","motorway_junction","9","motorway_junction",-0.2084483,51.958942
"402146",NA,"motorway_junction",NA,"motorway_junction",-1.4857167,51.7752184
"402197",NA,"motorway_junction",NA,"motorway_junction",-1.4490422,51.7861057
"402775","Langley Sidings","motorway_junction","7","motorway_junction",-0.2052151,51.8850147
"403015","The Clock","motorway_junction","6","motorway_junction",-0.2137859,51.8223672
"403097","Oldings Corner","motorway_junction","4","motorway_junction",-0.2251663,51.7763079
"405560",NA,"motorway_junction",NA,"motorway_junction",-0.7834418,51.5279792
"405656",NA,"motorway_junction",NA,"motorway_junction",-0.786857,51.536777
"408249",NA,"motorway_junction",NA,"motorway_junction",-0.7573196,51.5841291
"412907",NA,"motorway_junction",NA,"motorway_junction",-1.1821346,51.8782372
"432436","Barham","motorway_junction",NA,"motorway_junction",1.1711883,51.2089265
"432566","Harbledown","motorway_junction",NA,"motorway_junction",1.0325068,51.2829192
"432669","Danson","motorway_junction",NA,"motorway_junction",0.1238933,51.4488547
"432740",NA,"motorway_junction",NA,"motorway_junction",0.0463519,51.4555711
"432749",NA,"motorway_junction",NA,"motorway_junction",0.0376402,51.4587724
"471745","Peartree","motorway_junction",NA,"motorway_junction",-1.2823729,51.7981308
"490036","Oldings Corner","motorway_junction","4","motorway_junction",-0.2224506,51.7813346
"498049","Edworth Turn","motorway_junction",NA,"motorway_junction",-0.229416,52.0521673
"498074","Stotfold","motorway_junction","10","motorway_junction",-0.2066672,52.0175174
"498113","Letchworth Gate","motorway_junction","9","motorway_junction",-0.199122,51.9669827
"507422","Corey's Mill","motorway_junction","8","motorway_junction",-0.2176214,51.9324375
"507728","Langley Sidings","motorway_junction","7","motorway_junction",-0.2078013,51.8899051
"514048","Airport Way Roundabout East","motorway_junction","9A","motorway_junction",-0.1527623,51.1594888
"515704","Bath Road Junction","motorway_junction",NA,"motorway_junction",-1.3515869,51.4135216
"516270","Tot Hill Interchange","motorway_junction",NA,"motorway_junction",-1.3408136,51.344837
"517513","Tufton Interchange","motorway_junction",NA,"motorway_junction",-1.3414637,51.2135182
"526062",NA,"motorway_junction",NA,"motorway_junction",-0.15658,51.605868
"540781","Quarry Hill","motorway_junction",NA,"motorway_junction",0.2590386,51.1828943
"542260","Morleys","motorway_junction",NA,"motorway_junction",0.2134395,51.2348629
"542262","Chipstead","motorway_junction",NA,"motorway_junction",0.146988,51.28318
"542265","Chipstead","motorway_junction",NA,"motorway_junction",0.149705,51.2806459
"542313","Morleys","motorway_junction",NA,"motorway_junction",0.2048602,51.2432446
"553415","Botley Interchange","motorway_junction",NA,"motorway_junction",-1.2967697,51.7531578
"557862","East Ilsley Interchange","motorway_junction",NA,"motorway_junction",-1.2946887,51.5287486
"557870","Chilton Junction","motorway_junction",NA,"motorway_junction",-1.3000222,51.5692695
"557879","Milton Interchange","motorway_junction",NA,"motorway_junction",-1.2993027,51.6165234
"621265",NA,"motorway_junction",NA,"motorway_junction",-0.6882744,52.0338202
"646559",NA,"motorway_junction",NA,"motorway_junction",-0.6880045,52.0336878
"648286",NA,"motorway_junction",NA,"motorway_junction",-0.4855306,51.7388103
"648584",NA,"motorway_junction",NA,"motorway_junction",-0.5699076,51.7494797
"648611",NA,"motorway_junction",NA,"motorway_junction",-0.6387508,51.7911063
"648635",NA,"motorway_junction",NA,"motorway_junction",-0.6847222,51.7898608
"654541",NA,"motorway_junction",NA,"motorway_junction",-1.2251078,51.7136871
"687854","Winnersh","motorway_junction",NA,"motorway_junction",-0.8553918,51.4312784
"687861","Winnersh","motorway_junction",NA,"motorway_junction",-0.854488,51.4311772
"711983",NA,"motorway_junction",NA,"motorway_junction",0.2860975,51.4847222
"1366715",NA,"motorway_junction",NA,"motorway_junction",-0.6202164,51.4955709
"1522785",NA,"motorway_junction",NA,"motorway_junction",-0.4504817,51.5141164
"2734585",NA,"motorway_junction",NA,"motorway_junction",-1.0971008,52.0600732
"3262162",NA,"motorway_junction",NA,"motorway_junction",-1.3038524,52.0707842
"3687058","Marcham Road Interchange","motorway_junction",NA,"motorway_junction",-1.3082199,51.6731242
"3687067","Marcham Road Interchange","motorway_junction",NA,"motorway_junction",-1.3123092,51.6658849
"4024381","The Thicket","motorway_junction","9B","motorway_junction",-0.7627644,51.516235
"4065992","Barham","motorway_junction",NA,"motorway_junction",1.1834334,51.1956975
"4351573",NA,"motorway_junction",NA,"motorway_junction",-1.0745981,51.2675354
"4351641","Reading Road Roundabout","motorway_junction",NA,"motorway_junction",-1.0716262,51.2743228
"5513546","Abbey Hill Roundabout","motorway_junction",NA,"motorway_junction",-0.7975545,52.045449
"7982878","Cox Green","motorway_junction","9A","motorway_junction",-0.7369029,51.5077405
"7989019","Cox Green","motorway_junction","9A","motorway_junction",-0.7347651,51.5069291
"7990951",NA,"motorway_junction",NA,"motorway_junction",-0.9785292,51.4537929
"8086773","Five Bells","motorway_junction",NA,"motorway_junction",0.4597075,51.5493746
"8086785","Pitsea","motorway_junction",NA,"motorway_junction",0.5015864,51.5613067
"8086827","Five Bells","motorway_junction",NA,"motorway_junction",0.471371,51.552017
"9241207",NA,"motorway_junction",NA,"motorway_junction",-0.35218,51.5372526
"9486433",NA,"motorway_junction",NA,"motorway_junction",-0.8969088,51.1841087
"9935203","Hillingdon Circus","motorway_junction",NA,"motorway_junction",-0.4608142,51.5563507
"10112883","Addlestone","motorway_junction","11","motorway_junction",-0.5075738,51.371324
"10239644",NA,"motorway_junction",NA,"motorway_junction",-1.0746591,52.0648803
"10239690",NA,"motorway_junction",NA,"motorway_junction",-1.041835,52.0802308
"10305537","Redmoor Roundabout","motorway_junction",NA,"motorway_junction",-0.7445085,52.0121728
"10306385",NA,"motorway_junction",NA,"motorway_junction",-0.6756025,51.9857778
"10308717","Portway Roundabout","motorway_junction",NA,"motorway_junction",-0.7782777,52.0350112
"10308739","Abbey Hill Roundabout","motorway_junction",NA,"motorway_junction",-0.8105418,52.0484598
"10308769","Portway Roundabout","motorway_junction",NA,"motorway_junction",-0.7867217,52.040702
"10311993","Kings Langley","motorway_junction","20","motorway_junction",-0.4466968,51.6948995
"10314698","Old Ford","motorway_junction",NA,"motorway_junction",-0.0252114,51.5361018
"10316852",NA,"motorway_junction",NA,"motorway_junction",-0.7053643,52.0545928
"10864209",NA,"motorway_junction",NA,"motorway_junction",-1.2215717,51.8546737
"11060834","Bow Interchange","motorway_junction",NA,"motorway_junction",-0.0112317,51.526901
"11060850",NA,"motorway_junction",NA,"motorway_junction",-0.0088154,51.5158623
"11060852",NA,"motorway_junction",NA,"motorway_junction",-0.0080841,51.5138224
"11063478",NA,"motorway_junction",NA,"motorway_junction",-0.0240913,51.5499166
"11130382",NA,"motorway_junction",NA,"motorway_junction",-0.0082552,51.512308
"11874597","Dunmow South Interchange","motorway_junction",NA,"motorway_junction",0.3828052,51.8603911
"11874648","Panners","motorway_junction",NA,"motorway_junction",0.5255331,51.8689222
"11896898","Ardleigh Crown Interchange","motorway_junction","29","motorway_junction",0.9387757,51.9256178
"11896907",NA,"motorway_junction",NA,"motorway_junction",0.9497466,51.9358042
"12079094","Merstham","motorway_junction","7","motorway_junction",-0.1170242,51.2612611
"12079111","Godstone","motorway_junction","6","motorway_junction",-0.073378,51.2583239
"12081834","Swanley","motorway_junction","3","motorway_junction",0.1967298,51.392525
"12081837","Swanley","motorway_junction","3","motorway_junction",0.2056098,51.3997095
"12086350","Princes Road","motorway_junction","1B","motorway_junction",0.2385349,51.4418432
"12086430","Theydon","motorway_junction","27","motorway_junction",0.1342325,51.6771394
"12090198","The Bell","motorway_junction","22","motorway_junction",-0.2718465,51.7154144
"12090202","The Bell","motorway_junction","22","motorway_junction",-0.2831058,51.7153363
"12180069",NA,"motorway_junction",NA,"motorway_junction",-0.7563302,51.5776802
"12185622","Heston Services","motorway_junction",NA,"motorway_junction",-0.394436,51.4887575
"12194074","Brentford","motorway_junction","2","motorway_junction",-0.2927731,51.4913219
"12243683",NA,"motorway_junction",NA,"motorway_junction",0.0028196,51.51427
"12244312",NA,"motorway_junction",NA,"motorway_junction",0.0128689,51.5163074
"12731582","Old Ford","motorway_junction",NA,"motorway_junction",-0.0190999,51.5319193
"12907396","Stotfold","motorway_junction","10","motorway_junction",-0.2015883,52.0079584
"13101520","Dummer","motorway_junction","7","motorway_junction",-1.1650734,51.216397
"13353263","Chorleywood","motorway_junction","18","motorway_junction",-0.4940232,51.6595024
"13378754",NA,"motorway_junction",NA,"motorway_junction",-0.2535761,51.5573709
"13378757","Staples Corner","motorway_junction",NA,"motorway_junction",-0.2381415,51.5697807
"13378771",NA,"motorway_junction",NA,"motorway_junction",-0.2527548,51.5561447
"13671747","Nevendon Junction","motorway_junction",NA,"motorway_junction",0.4901798,51.5924915
"13678371",NA,"motorway_junction",NA,"motorway_junction",0.486014,51.5921456
"13678391","Fortune of War","motorway_junction",NA,"motorway_junction",0.4246708,51.5836229
"13678400","Halfway House","motorway_junction",NA,"motorway_junction",0.352009,51.5790751
"13678983","Cranham","motorway_junction",NA,"motorway_junction",0.27499,51.5740156
"13874272",NA,"motorway_junction",NA,"motorway_junction",-1.0242444,52.083452
"13922390",NA,"motorway_junction",NA,"motorway_junction",0.0279852,51.4697671
"13922396",NA,"motorway_junction",NA,"motorway_junction",0.0229778,51.4778919
"13986560","Hammersmith Flyover","motorway_junction",NA,"motorway_junction",-0.2174154,51.4908023
"14077514",NA,"motorway_junction",NA,"motorway_junction",1.1667752,51.3605403
"14077530",NA,"motorway_junction",NA,"motorway_junction",1.1976357,51.3647811
"14077557","Clapham Hill","motorway_junction",NA,"motorway_junction",1.0048875,51.3371018
"14085991","Sutton Seeds Roundabout","motorway_junction",NA,"motorway_junction",-0.9404401,51.4575325
"14288536",NA,"motorway_junction",NA,"motorway_junction",-0.9789836,51.4548289
"14349098",NA,"motorway_junction",NA,"motorway_junction",-0.9833094,51.1368938
"14349101",NA,"motorway_junction",NA,"motorway_junction",-0.9737028,51.1371721
"14350923",NA,"motorway_junction",NA,"motorway_junction",-0.7646247,51.2217848
"14350943","Blackwater Valley","motorway_junction",NA,"motorway_junction",-0.7487338,51.2266766
"14404264",NA,"motorway_junction",NA,"motorway_junction",-0.2891961,51.7311681
"14598743","Kidbrooke Interchange","motorway_junction",NA,"motorway_junction",0.0299232,51.4617875
"14598747","Kidbrooke Interchange","motorway_junction",NA,"motorway_junction",0.030425,51.4638431
"15375759",NA,"motorway_junction",NA,"motorway_junction",-0.4028368,51.6589919
"15376426","Berrygrove","motorway_junction",NA,"motorway_junction",-0.3745961,51.6735679
"15412376","Hoddesdon Interchange","motorway_junction",NA,"motorway_junction",-0.0332668,51.7617815
"15412381","Hoddesdon Interchange","motorway_junction",NA,"motorway_junction",-0.0264842,51.7682296
"15412396","Hailey Interchange","motorway_junction",NA,"motorway_junction",-0.022055,51.7795057
"15692228","Coppid Beech Roundabout","motorway_junction",NA,"motorway_junction",-0.7948385,51.4103911
"15722694",NA,"motorway_junction",NA,"motorway_junction",-0.9773923,51.4579989
"16787190",NA,"motorway_junction",NA,"motorway_junction",-0.1475283,51.6076313
"16807735","Nacton","motorway_junction","57","motorway_junction",1.2025494,52.0247363
"16896460","Rush Green Roundabout","motorway_junction",NA,"motorway_junction",-0.0459018,51.8029073
"16896472","Hailey Interchange","motorway_junction",NA,"motorway_junction",-0.0238183,51.7879067
"17064375","Seven Hills","motorway_junction","58","motorway_junction",1.2487454,52.0278369
"17432908","Turnford","motorway_junction",NA,"motorway_junction",-0.0326424,51.7294902
"17432909","Turnford","motorway_junction",NA,"motorway_junction",-0.0333645,51.723699
"17807356",NA,"motorway_junction",NA,"motorway_junction",-0.1658834,51.9914429
"17807357",NA,"motorway_junction",NA,"motorway_junction",-0.1554636,51.9977993
"17821324",NA,"motorway_junction",NA,"motorway_junction",-1.3425636,51.1040228
"17822890","Bullington Cross","motorway_junction",NA,"motorway_junction",-1.3400996,51.172401
"17822929","Litchfield Interchange","motorway_junction",NA,"motorway_junction",-1.3431491,51.271683
"17822980","Tot Hill Interchange","motorway_junction",NA,"motorway_junction",-1.3397728,51.3522534
"18238440","Rush Green Roundabout","motorway_junction",NA,"motorway_junction",-0.0376718,51.797461
"18240429","Moles Interchange","motorway_junction",NA,"motorway_junction",-0.0323102,51.828591
"18240433","Moles Interchange","motorway_junction",NA,"motorway_junction",-0.035364,51.8267158
"18305587",NA,"motorway_junction",NA,"motorway_junction",-0.2045342,51.7723279
"18306041","Bath Road Junction","motorway_junction",NA,"motorway_junction",-1.3540617,51.4114566
"18357425","Oxford Road Roundabout","motorway_junction",NA,"motorway_junction",-1.3121733,51.4498613
"18473295",NA,"motorway_junction",NA,"motorway_junction",-0.3219795,51.935942
"18945159","Westmill Interchange","motorway_junction",NA,"motorway_junction",-0.0512417,51.8162578
"20911833",NA,"motorway_junction",NA,"motorway_junction",0.0306578,51.7840777
"20947441","Hyde Park Corner","motorway_junction",NA,"motorway_junction",-0.1558366,51.5025081
"21054503","Felixstowe Road","motorway_junction",NA,"motorway_junction",1.2842323,52.0060573
"21054534","Croft Lane","motorway_junction",NA,"motorway_junction",1.2864342,52.004707
"21054601","Trimley","motorway_junction","59","motorway_junction",1.3219993,51.9853626
"21055021","Dock Gate 1 Roundabout","motorway_junction","62","motorway_junction",1.3268693,51.9565883
"21075716",NA,"motorway_junction",NA,"motorway_junction",-0.6931947,51.1520413
"21075979","Milford Junction","motorway_junction",NA,"motorway_junction",-0.6509458,51.1829156
"21076007",NA,"motorway_junction",NA,"motorway_junction",-0.6466668,51.1958407
"21076010",NA,"motorway_junction",NA,"motorway_junction",-0.6458871,51.1987997
"21076037",NA,"motorway_junction",NA,"motorway_junction",-0.6466355,51.214789
"21076068","Hog's Back","motorway_junction",NA,"motorway_junction",-0.6182156,51.2284325
"21178518",NA,"motorway_junction",NA,"motorway_junction",-1.1095911,51.2674581
"21258949","Concorde Roundabout","motorway_junction","4A","motorway_junction",-0.4524875,51.4820074
"21261808",NA,"motorway_junction",NA,"motorway_junction",0.877766,51.1256205
"21262199","Lacton","motorway_junction","10","motorway_junction",0.9068163,51.1407732
"21277286","Reading Road Roundabout","motorway_junction",NA,"motorway_junction",-1.0794477,51.2788041
"21279989",NA,"motorway_junction",NA,"motorway_junction",-0.0347807,51.7165518
"21285478","Stokenchurch","motorway_junction","5","motorway_junction",-0.9072814,51.658912
"21546140","Priory Wood","motorway_junction",NA,"motorway_junction",0.2154848,51.8715553
"21627217",NA,"motorway_junction",NA,"motorway_junction",-0.4358099,51.9518228
"21705552","Westmill Interchange","motorway_junction",NA,"motorway_junction",-0.0428559,51.8224269
"21744277","Pembury","motorway_junction",NA,"motorway_junction",0.3076898,51.1436306
"21744303","Pembury","motorway_junction",NA,"motorway_junction",0.3066218,51.1444203
"21775393","Port of Felixstowe","motorway_junction","61","motorway_junction",1.3231894,51.9667315
"24942373","Beedon Interchange","motorway_junction",NA,"motorway_junction",-1.2930801,51.5017115
"24943236","Lodge Hill","motorway_junction",NA,"motorway_junction",-1.263189,51.7001666
"25297844",NA,"motorway_junction",NA,"motorway_junction",-1.3023447,52.0708101
"25316066",NA,"motorway_junction",NA,"motorway_junction",-0.7396156,52.0391301
"25316080",NA,"motorway_junction",NA,"motorway_junction",-0.7331935,52.0285224
"25318607",NA,"motorway_junction",NA,"motorway_junction",-0.733683,52.0282925
"25321040","Redmoor Roundabout","motorway_junction",NA,"motorway_junction",-0.7329918,52.0121391
"25371093",NA,"motorway_junction",NA,"motorway_junction",-1.0790031,51.2669689
"25451022",NA,"motorway_junction",NA,"motorway_junction",-0.7824933,52.0518933
"25451031",NA,"motorway_junction",NA,"motorway_junction",-0.7823836,52.0515189
"25468860",NA,"motorway_junction",NA,"motorway_junction",0.441426,51.5847422
"25613987",NA,"motorway_junction",NA,"motorway_junction",-0.6913309,51.7945521
"25614067",NA,"motorway_junction",NA,"motorway_junction",-0.708249,51.8082205
"25614226",NA,"motorway_junction",NA,"motorway_junction",-0.7324031,51.8089014
"25614229",NA,"motorway_junction",NA,"motorway_junction",-0.7334969,51.8088212
"25676240",NA,"motorway_junction",NA,"motorway_junction",-0.4497549,51.5089498
"25782622","Theydon","motorway_junction","27","motorway_junction",0.1381416,51.6755102
"26008322","Bluebell","motorway_junction",NA,"motorway_junction",0.505553,51.3394877
"26008406",NA,"motorway_junction",NA,"motorway_junction",0.5066566,51.3210658
"26008411",NA,"motorway_junction",NA,"motorway_junction",0.5109394,51.3152056
"26011578","Fairglen Interchange","motorway_junction",NA,"motorway_junction",0.5724701,51.5864837
"26011593","Nevendon Junction","motorway_junction",NA,"motorway_junction",0.508915,51.5918352
"26159757",NA,"motorway_junction",NA,"motorway_junction",-1.3276416,51.7335126
"26208054","Wennington","motorway_junction",NA,"motorway_junction",0.2359341,51.4980347
"26263124","Stifford Interchange","motorway_junction",NA,"motorway_junction",0.3093282,51.496036
"26263303","Baker Street","motorway_junction",NA,"motorway_junction",0.3396881,51.5052727
"26263615","Orsett Cock","motorway_junction",NA,"motorway_junction",0.3731446,51.5048357
"26293262",NA,"motorway_junction",NA,"motorway_junction",0.4408485,51.5845273
"26315646","Blackwater Valley","motorway_junction",NA,"motorway_junction",-0.7350417,51.2265693
"26315684","Seale","motorway_junction",NA,"motorway_junction",-0.7305341,51.2257367
"26344536","Hastingwood Interchange","motorway_junction","7","motorway_junction",0.1406485,51.7468377
"26345631","Hastingwood Interchange","motorway_junction","7","motorway_junction",0.1365071,51.7382746
"26348435",NA,"motorway_junction",NA,"motorway_junction",0.0247427,51.5964615
"26500293",NA,"motorway_junction",NA,"motorway_junction",0.481033,51.5919956
"26561172","Ardleigh Crown Interchange","motorway_junction","29","motorway_junction",0.9222573,51.9252897
"26575330","Marshfoot","motorway_junction",NA,"motorway_junction",0.3533345,51.4803672
"26577913","Marylands Interchange","motorway_junction","12","motorway_junction",0.3379886,51.6443708
"26606836","Stanford Interchange (Manorway)","motorway_junction",NA,"motorway_junction",0.4172186,51.5171736
"26608537",NA,"motorway_junction",NA,"motorway_junction",0.4985607,51.7415253
"26668724","Chatham Maritime","motorway_junction",NA,"motorway_junction",0.5404358,51.3990383
"26673162","Wrotham","motorway_junction","2","motorway_junction",0.2874437,51.3182938
"26676544","Swanley","motorway_junction","1","motorway_junction",0.2100943,51.3845287
"26689386","Drovers","motorway_junction","9","motorway_junction",0.873778,51.1580688
"26694227",NA,"motorway_junction",NA,"motorway_junction",0.871847,51.1262605
"26719047",NA,"motorway_junction",NA,"motorway_junction",0.9844944,51.3244887
"26733658",NA,"motorway_junction",NA,"motorway_junction",0.5113787,51.3142041
"26733671",NA,"motorway_junction",NA,"motorway_junction",0.5030748,51.331508
"26733673","Bluebell","motorway_junction",NA,"motorway_junction",0.5027594,51.3335279
"26738723","Eddington","motorway_junction",NA,"motorway_junction",1.1255829,51.3562023
"26741414","Stockbury","motorway_junction",NA,"motorway_junction",0.6651126,51.3323793
"26830402",NA,"motorway_junction",NA,"motorway_junction",0.2962727,51.5743465
"26830403",NA,"motorway_junction",NA,"motorway_junction",0.3034941,51.5744971
"26848613","Dunton Junction","motorway_junction",NA,"motorway_junction",0.3986201,51.5846247
"26871908",NA,"motorway_junction",NA,"motorway_junction",-0.7344416,51.2459926
"27230110",NA,"motorway_junction",NA,"motorway_junction",0.5153803,51.2939527
"27241367","Courtwood","motorway_junction",NA,"motorway_junction",1.2461861,51.1037601
"27297327","Aylesford","motorway_junction","5","motorway_junction",0.4950927,51.2959897
"27320424",NA,"motorway_junction",NA,"motorway_junction",-1.1837327,51.8776003
"27487641",NA,"motorway_junction",NA,"motorway_junction",0.0263615,51.4719742
"27494027",NA,"motorway_junction",NA,"motorway_junction",0.0200365,51.4844303
"27514407","Key Street","motorway_junction",NA,"motorway_junction",0.6924532,51.3444113
"27561397",NA,"motorway_junction",NA,"motorway_junction",0.2356597,51.8741039
"27599025",NA,"motorway_junction",NA,"motorway_junction",-0.0187701,51.5075597
"27603734",NA,"motorway_junction",NA,"motorway_junction",-0.0038845,51.5085725
"27603815",NA,"motorway_junction",NA,"motorway_junction",-0.0033463,51.5092689
"27667547","Ardleigh Crown Interchange","motorway_junction",NA,"motorway_junction",0.9398587,51.9198779
"27667554",NA,"motorway_junction",NA,"motorway_junction",1.0365626,51.8854214
"27786736","Sandon Interchange","motorway_junction","18","motorway_junction",0.5287214,51.7167583
"27790849",NA,"motorway_junction",NA,"motorway_junction",0.504295,51.7222825
"28195001","Marshfoot","motorway_junction",NA,"motorway_junction",0.3481297,51.4749725
"28264029","Lewknor","motorway_junction","6","motorway_junction",-0.9622288,51.6750536
"28417996","Waltham Cross","motorway_junction","25","motorway_junction",-0.0409787,51.6826196
"28419372","Potters Bar","motorway_junction","24","motorway_junction",-0.1636482,51.6877566
"28482129",NA,"motorway_junction",NA,"motorway_junction",1.119788,51.254527
"28895501",NA,"motorway_junction",NA,"motorway_junction",1.1442638,51.3612521
"28935153",NA,"motorway_junction",NA,"motorway_junction",1.1704339,51.3599525
"28982915","Baker Street","motorway_junction",NA,"motorway_junction",0.355233,51.4992514
"29389986",NA,"motorway_junction",NA,"motorway_junction",1.0054153,51.2883024
"29486406","Priory Wood","motorway_junction","8A","motorway_junction",0.1973958,51.8691871
"29486447","Dunmow West Interchange","motorway_junction",NA,"motorway_junction",0.3172013,51.8721809
"29486462","Dunmow South Interchange","motorway_junction",NA,"motorway_junction",0.3704208,51.8593364
"29983372",NA,"motorway_junction",NA,"motorway_junction",-0.2898374,51.7310689
"30127505","Trimley","motorway_junction","59","motorway_junction",1.3148432,51.9938718
"30145238","Dockspur","motorway_junction","60","motorway_junction",1.3311165,51.9781928
"30184984",NA,"motorway_junction",NA,"motorway_junction",-0.2949388,51.5322186
"30385892",NA,"motorway_junction",NA,"motorway_junction",0.5640426,51.5839683
"30522012","Rayleigh Weir","motorway_junction",NA,"motorway_junction",0.5936145,51.5776916
"30551219",NA,"motorway_junction",NA,"motorway_junction",-0.3190225,51.7312516
"30606251",NA,"motorway_junction",NA,"motorway_junction",0.559123,51.5816826
"30968049",NA,"motorway_junction",NA,"motorway_junction",0.5576657,51.6261646
"30991669",NA,"motorway_junction",NA,"motorway_junction",0.2505223,51.5786743
"30992297",NA,"motorway_junction",NA,"motorway_junction",0.2587003,51.578044
"31322700",NA,"motorway_junction",NA,"motorway_junction",1.1528837,51.3606308
"31436617","Chatham Maritime","motorway_junction",NA,"motorway_junction",0.5323046,51.4004242
"31783170",NA,"motorway_junction",NA,"motorway_junction",0.5598816,51.5850328
"31789323","Howe Green Interchange","motorway_junction","17","motorway_junction",0.5211409,51.7065682
"32038370",NA,"motorway_junction",NA,"motorway_junction",0.2787085,51.4379402
"32038896",NA,"motorway_junction",NA,"motorway_junction",0.2791713,51.4400423
"32038927",NA,"motorway_junction",NA,"motorway_junction",0.2716697,51.4431745
"32038941",NA,"motorway_junction",NA,"motorway_junction",0.2661496,51.4418364
"32038949",NA,"motorway_junction",NA,"motorway_junction",0.2736019,51.4430473
"32553206",NA,"motorway_junction",NA,"motorway_junction",-0.3417686,51.5350795
"32650595","Bow Interchange","motorway_junction",NA,"motorway_junction",-0.0160641,51.5291254
"32899655",NA,"motorway_junction",NA,"motorway_junction",0.0336276,51.5767501
"32921935","Lodge Avenue;Ripple Road Junction","motorway_junction",NA,"motorway_junction",0.1048475,51.5323152
"32922157","Lodge Avenue / Ripple Road Junction","motorway_junction",NA,"motorway_junction",0.1137808,51.5327131
"32923120",NA,"motorway_junction",NA,"motorway_junction",0.0712514,51.5332747
"32923135",NA,"motorway_junction",NA,"motorway_junction",0.0667843,51.5397559
"32949780","Sandling","motorway_junction","6","motorway_junction",0.5083425,51.2986812
"33067257","Whitehouse","motorway_junction","53","motorway_junction",1.1163481,52.0913014
"33076188",NA,"motorway_junction",NA,"motorway_junction",-1.4418867,51.1996226
"33076229",NA,"motorway_junction",NA,"motorway_junction",-1.4804713,51.1947486
"33081278","Staples Corner","motorway_junction",NA,"motorway_junction",-0.2220826,51.5737842
"33115041",NA,"motorway_junction",NA,"motorway_junction",0.5078628,51.3475014
"34060043","Webbs Farm Interchange","motorway_junction","15","motorway_junction",0.4185622,51.6936911
"34204174","Courtwood","motorway_junction",NA,"motorway_junction",1.2337412,51.1073918
"34218654","Alkham Valley","motorway_junction",NA,"motorway_junction",1.1781422,51.1088717
"34814783",NA,"motorway_junction",NA,"motorway_junction",0.00553,51.494504
"35295076","Grovehurst","motorway_junction",NA,"motorway_junction",0.7383502,51.3720298
"35295207","Bobbing","motorway_junction",NA,"motorway_junction",0.7032156,51.3483442
"35299730","Boughton","motorway_junction",NA,"motorway_junction",0.9283928,51.3009487
"36111034",NA,"motorway_junction",NA,"motorway_junction",0.1153534,51.4996938
"36655734",NA,"motorway_junction",NA,"motorway_junction",0.1376403,51.4485119
"36705344","Whitehouse","motorway_junction","53","motorway_junction",1.1123458,52.0861848
"36705387","Sproughton","motorway_junction","54","motorway_junction",1.1094617,52.0663904
"36782125","Seven Hills","motorway_junction","58","motorway_junction",1.2593019,52.0230812
"36783322","Claydon","motorway_junction","52","motorway_junction",1.110947,52.0994559
"38426939",NA,"motorway_junction",NA,"motorway_junction",-0.6667562,51.9770489
"38427904",NA,"motorway_junction",NA,"motorway_junction",-0.6971213,51.9907484
"38455265","Webbs Farm Interchange","motorway_junction","15","motorway_junction",0.4313381,51.6961525
"46495148",NA,"motorway_junction",NA,"motorway_junction",0.1519162,51.4977305
"48841936","Marks Tey","motorway_junction","25","motorway_junction",0.7943274,51.8830386
"48946047",NA,"motorway_junction",NA,"motorway_junction",-0.4210076,51.6853328
"48947263",NA,"motorway_junction",NA,"motorway_junction",0.329804,51.5766
"59672944",NA,"motorway_junction",NA,"motorway_junction",0.1043571,51.4155624
"59673641",NA,"motorway_junction",NA,"motorway_junction",0.0931171,51.4216889
"60268838",NA,"motorway_junction",NA,"motorway_junction",-0.3752886,51.5422436
"60573099","Friar's Wash","motorway_junction","9","motorway_junction",-0.4177571,51.8249636
"60911133",NA,"motorway_junction",NA,"motorway_junction",-0.769332,51.4061325
"81721767","Sproughton","motorway_junction","54","motorway_junction",1.107445,52.0624097
"83791219",NA,"motorway_junction",NA,"motorway_junction",-0.2743299,51.5261623
"86873499","Hazel Grove Junction","motorway_junction",NA,"motorway_junction",-0.7477465,51.1038024
"87297403",NA,"motorway_junction",NA,"motorway_junction",-0.2543923,51.5531272
"87301677",NA,"motorway_junction",NA,"motorway_junction",-0.253045,51.5606039
"87339925",NA,"motorway_junction",NA,"motorway_junction",-0.2684249,51.5463345
"88183155",NA,"motorway_junction",NA,"motorway_junction",0.0024088,51.5102695
"90095878",NA,"motorway_junction",NA,"motorway_junction",0.0135073,51.4887632
"91689371","Hanger Lane","motorway_junction",NA,"motorway_junction",-0.286726,51.5280812
"96065591",NA,"motorway_junction",NA,"motorway_junction",-0.0148836,51.551687
"96524073",NA,"motorway_junction",NA,"motorway_junction",0.1415113,51.4094999
"96524557",NA,"motorway_junction",NA,"motorway_junction",0.1197643,51.4116429
"96525915",NA,"motorway_junction",NA,"motorway_junction",0.1059665,51.4150839
"97473615",NA,"motorway_junction",NA,"motorway_junction",0.1791878,51.3893107
"97476648",NA,"motorway_junction",NA,"motorway_junction",0.1625098,51.3925845
"106240451","London Gateway Services","motorway_junction",NA,"motorway_junction",-0.2624162,51.6285856
"107774052","Wisley","motorway_junction","10","motorway_junction",-0.4437347,51.3195976
"107776965","Wisley","motorway_junction","10","motorway_junction",-0.4558363,51.3236577
"114962313",NA,"motorway_junction",NA,"motorway_junction",-0.6501556,51.7898108
"116148441",NA,"motorway_junction",NA,"motorway_junction",0.0675216,51.5522718
"124142270","Goresbrook","motorway_junction",NA,"motorway_junction",0.1348075,51.5315807
"126001491",NA,"motorway_junction","30","motorway_junction",0.981261,51.9704976
"126001923",NA,"motorway_junction","31","motorway_junction",1.0082517,51.9871857
"126373238",NA,"motorway_junction","32B","motorway_junction",1.0765958,52.0184655
"126373446",NA,"motorway_junction","32B","motorway_junction",1.0643521,52.0108702
"126413898",NA,"motorway_junction","32A","motorway_junction",1.06179,52.008098
"134075580","Bullington Cross","motorway_junction",NA,"motorway_junction",-1.339191,51.1753243
"135770208","Hyde Park Corner","motorway_junction",NA,"motorway_junction",-0.1507052,51.5032992
"136868815","Samphire Hoe","motorway_junction",NA,"motorway_junction",1.2864794,51.1100147
"147836196",NA,"motorway_junction",NA,"motorway_junction",-0.5354121,51.2666774
"170602610","Merstham","motorway_junction","8","motorway_junction",-0.1252169,51.2570249
"170644582","Clacket Lane Services","motorway_junction",NA,"motorway_junction",0.0309544,51.2712788
"170919968","Hewitts","motorway_junction","4","motorway_junction",0.1561273,51.3540048
"170920617","Hewitts","motorway_junction","4","motorway_junction",0.1560653,51.3419766
"170978096","Darenth","motorway_junction","2","motorway_junction",0.2352904,51.4224187
"170980509","Darenth","motorway_junction",NA,"motorway_junction",0.2454685,51.4270636
"177227414","Kingsferry","motorway_junction",NA,"motorway_junction",0.7432692,51.3823603
"179008924","Heathrow","motorway_junction","4","motorway_junction",-0.4536095,51.494079
"181311947","Eight Ash Green Interchange","motorway_junction","26","motorway_junction",0.8333556,51.890629
"181311950","Eight Ash Green Interchange","motorway_junction","26","motorway_junction",0.8219711,51.8901563
"206223889","Reigate Hill","motorway_junction","8","motorway_junction",-0.166222,51.2684876
"206224677","Reigate Hill","motorway_junction","8","motorway_junction",-0.2031916,51.2581572
"206226603","Leatherhead","motorway_junction","9","motorway_junction",-0.3187114,51.3013603
"207007842","Denham","motorway_junction","16","motorway_junction",-0.5334257,51.565865
"208649920","Maple Cross","motorway_junction","17","motorway_junction",-0.5048468,51.6405926
"208656065","Chorleywood","motorway_junction","18","motorway_junction",-0.4975981,51.6522906
"208685856","Kings Langley","motorway_junction","20","motorway_junction",-0.4407362,51.7028809
"208707975","Bricket Wood","motorway_junction","21A","motorway_junction",-0.3646208,51.7128784
"208711702","Waterdale","motorway_junction","6","motorway_junction",-0.3813559,51.7049956
"208711909","Waterdale","motorway_junction","6","motorway_junction",-0.3811237,51.705057
"208790389",NA,"motorway_junction",NA,"motorway_junction",-0.3858248,51.7200528
"208791105","Chiswell","motorway_junction","6A","motorway_junction",-0.3887962,51.7255987
"210894332","Purfleet","motorway_junction","31","motorway_junction",0.266794,51.4825388
"210917850","Mardyke","motorway_junction",NA,"motorway_junction",0.274795,51.4972353
"210926787","Mardyke","motorway_junction","30","motorway_junction",0.2677469,51.5055265
"210969777","Cranham","motorway_junction","29","motorway_junction",0.2816166,51.5784432
"210981246","Brook Street","motorway_junction","28","motorway_junction",0.255072,51.615514
"224831696","Tolworth Junction","motorway_junction",NA,"motorway_junction",-0.2843302,51.3757376
"224831941","Tolworth Junction","motorway_junction",NA,"motorway_junction",-0.2772036,51.3823925
"240746837",NA,"motorway_junction",NA,"motorway_junction",-0.7680126,51.4075049
"242698616","Five Ways Corner","motorway_junction",NA,"motorway_junction",-0.227597,51.5994196
"242930450",NA,"motorway_junction",NA,"motorway_junction",-0.0115521,51.5257994
"242930851",NA,"motorway_junction",NA,"motorway_junction",-0.0107656,51.5239684
"244209729",NA,"motorway_junction",NA,"motorway_junction",-0.2535025,51.5600233
"245023545",NA,"motorway_junction",NA,"motorway_junction",-0.0325641,51.5095247
"245564852","Great Notley","motorway_junction",NA,"motorway_junction",0.5395292,51.8682165
"246245763","Littlebrook","motorway_junction","1A","motorway_junction",0.2372456,51.4497751
"246826645","Dunmow West Interchange","motorway_junction",NA,"motorway_junction",0.3291708,51.8689678
"246852824",NA,"motorway_junction",NA,"motorway_junction",-0.6875245,52.0167963
"248545501",NA,"motorway_junction",NA,"motorway_junction",0.4901497,51.4105096
"248555020",NA,"motorway_junction",NA,"motorway_junction",-0.2414763,51.4055431
"248570346","Gads Hill","motorway_junction",NA,"motorway_junction",0.4616597,51.4068963
"248599244","Three Crutches","motorway_junction",NA,"motorway_junction",0.4485237,51.4024063
"248780954","Langford Turn","motorway_junction",NA,"motorway_junction",-0.226225,52.0467735
"248795455","Kenninghall","motorway_junction",NA,"motorway_junction",-0.0578168,51.6138879
"248948306",NA,"motorway_junction",NA,"motorway_junction",-0.0104943,51.5203564
"249000733","Boreham","motorway_junction","19","motorway_junction",0.5201921,51.7503689
"249675161","Angel Edmonton","motorway_junction",NA,"motorway_junction",-0.0601174,51.6140808
"249742999",NA,"motorway_junction",NA,"motorway_junction",-0.6847733,52.03362
"250118692","Bobbing","motorway_junction",NA,"motorway_junction",0.7140322,51.3539816
"250398620","Three Crutches","motorway_junction","1","motorway_junction",0.4355345,51.3997741
"250403930",NA,"motorway_junction",NA,"motorway_junction",0.3177187,51.4302158
"250672885","Hackney Wick","motorway_junction",NA,"motorway_junction",-0.0284659,51.5427015
"250702476","Beckton Roundabout","motorway_junction",NA,"motorway_junction",0.0683278,51.5236636
"250703473","Beckton Roundabout","motorway_junction",NA,"motorway_junction",0.0780331,51.5268503
"250704115","Marsh Way","motorway_junction",NA,"motorway_junction",0.1633734,51.5212621
"250704172","Marsh Way","motorway_junction",NA,"motorway_junction",0.1737304,51.5182994
"250718807","Darenth","motorway_junction","2","motorway_junction",0.2391003,51.4361546
"250761874","Cobham Services","motorway_junction",NA,"motorway_junction",-0.402679,51.3058311
"250768303",NA,"motorway_junction",NA,"motorway_junction",0.5119426,51.40434
"251337407",NA,"motorway_junction",NA,"motorway_junction",-0.1424969,52.0062468
"251337416",NA,"motorway_junction",NA,"motorway_junction",-0.1422611,52.0067322
"251611294",NA,"motorway_junction",NA,"motorway_junction",-0.0746114,51.6143579
"251757532",NA,"motorway_junction",NA,"motorway_junction",-1.4820759,51.1945074
"251758540",NA,"motorway_junction",NA,"motorway_junction",-1.4497894,51.2030751
"251848647","Beacon Hill Interchange","motorway_junction",NA,"motorway_junction",-1.3350962,51.3150855
"252145838","Cranford Parkway","motorway_junction","3","motorway_junction",-0.4026884,51.4907686
"252150316","Tuns Lane","motorway_junction","6","motorway_junction",-0.6249046,51.5050138
"252150488",NA,"motorway_junction",NA,"motorway_junction",-0.6544039,51.5155294
"252285223",NA,"motorway_junction",NA,"motorway_junction",-0.6230022,51.4860728
"252331435","Redbridge Roundabout","motorway_junction",NA,"motorway_junction",0.0486338,51.5717952
"252331739","Redbridge Roundabout","motorway_junction",NA,"motorway_junction",0.0414173,51.5802912
"252862825",NA,"motorway_junction",NA,"motorway_junction",0.2600223,51.8749822
"253037790",NA,"motorway_junction",NA,"motorway_junction",0.3255897,51.5761283
"253197518",NA,"motorway_junction",NA,"motorway_junction",-0.5736162,51.7495107
"253414765","Baker Street","motorway_junction",NA,"motorway_junction",0.3614072,51.5024826
"253856319","Dunton Junction","motorway_junction",NA,"motorway_junction",0.3859905,51.5827986
"253884612","Andover Road Interchange","motorway_junction",NA,"motorway_junction",-1.3594407,51.3639701
"253901619",NA,"motorway_junction",NA,"motorway_junction",0.2878243,51.4902264
"253950826","Stifford Interchange","motorway_junction",NA,"motorway_junction",0.3206538,51.5025336
"253951568",NA,"motorway_junction",NA,"motorway_junction",0.282769,51.4956845
"254332493",NA,"motorway_junction",NA,"motorway_junction",-0.4143372,51.7698574
"254332497","Breakspears","motorway_junction","8","motorway_junction",-0.4158802,51.7630952
"254586791",NA,"motorway_junction",NA,"motorway_junction",-0.2223803,51.5784798
"255485860","Beechtrees","motorway_junction","7","motorway_junction",-0.4114689,51.7514206
"255938549",NA,"motorway_junction",NA,"motorway_junction",-1.231321,51.1935711
"256249453","Waterworks","motorway_junction",NA,"motorway_junction",0.0184799,51.5952897
"256252306","Crooked Billet Interchange","motorway_junction",NA,"motorway_junction",-0.009099,51.6004106
"256256468",NA,"motorway_junction",NA,"motorway_junction",-0.0279303,51.6067897
"256259085","Cooks Ferry","motorway_junction",NA,"motorway_junction",-0.0330439,51.6122525
"256336485","The Green Man","motorway_junction",NA,"motorway_junction",0.0209849,51.5725973
"256336779","The Green Man","motorway_junction",NA,"motorway_junction",0.0099128,51.5708821
"256381695",NA,"motorway_junction",NA,"motorway_junction",0.0726854,51.6325872
"256521418","Bluebell","motorway_junction","3","motorway_junction",0.5056869,51.340023
"256878750","Bullington Cross","motorway_junction",NA,"motorway_junction",-1.3393414,51.1745177
"257473191",NA,"motorway_junction",NA,"motorway_junction",-0.5242889,51.7408055
"257550997","Bignells Corner","motorway_junction","23","motorway_junction",-0.2164624,51.6836677
"257615480",NA,"motorway_junction",NA,"motorway_junction",-0.2496483,51.6554047
"257904583","London Gateway Services","motorway_junction",NA,"motorway_junction",-0.2705488,51.6373842
"257904870","London Gateway Services","motorway_junction",NA,"motorway_junction",-0.2628674,51.6304523
"257909038","Brockley","motorway_junction","4","motorway_junction",-0.3065147,51.6366529
"260065001",NA,"motorway_junction",NA,"motorway_junction",1.1956916,51.184361
"260108632",NA,"motorway_junction",NA,"motorway_junction",0.3901672,51.407066
"260108642","Tollgate","motorway_junction",NA,"motorway_junction",0.3646386,51.4138112
"260108656",NA,"motorway_junction",NA,"motorway_junction",0.3344707,51.4245543
"260153042","Tollgate","motorway_junction",NA,"motorway_junction",0.3500838,51.4183721
"260153293",NA,"motorway_junction",NA,"motorway_junction",0.3791198,51.4096194
"260809216","Perry Court","motorway_junction","6","motorway_junction",0.8845945,51.3011261
"261675145","Chieveley Interchange","motorway_junction","13","motorway_junction",-1.3000016,51.4541446
"261679004",NA,"motorway_junction",NA,"motorway_junction",-1.3989644,51.4509864
"266006133","West Ilsley Interchange","motorway_junction",NA,"motorway_junction",-1.3015226,51.5609586
"269336646",NA,"motorway_junction",NA,"motorway_junction",-0.2947568,51.5316043
"271957340","Honeywood","motorway_junction",NA,"motorway_junction",1.3028458,51.1545034
"282225820","Grovehurst","motorway_junction",NA,"motorway_junction",0.7297102,51.3659457
"282267947",NA,"motorway_junction",NA,"motorway_junction",0.9566606,51.9444058
"282443392",NA,"motorway_junction",NA,"motorway_junction",-0.3116544,51.7298486
"282651665","Roestock","motorway_junction","2","motorway_junction",-0.2369895,51.7363518
"286367961","Huntercombe Spur","motorway_junction","7","motorway_junction",-0.6560985,51.5115927
"290969344",NA,"motorway_junction",NA,"motorway_junction",0.9524967,51.93941
"290977050","Dunkirk","motorway_junction",NA,"motorway_junction",0.9889304,51.2897893
"291582135",NA,"motorway_junction",NA,"motorway_junction",1.1472836,51.2278863
"292561617","Hatfield South","motorway_junction","20A","motorway_junction",0.583724,51.7741454
"294060991","Witham South","motorway_junction","21","motorway_junction",0.6132127,51.7822108
"297139720",NA,"motorway_junction",NA,"motorway_junction",1.1884462,52.0235592
"298205749","Honeywood","motorway_junction",NA,"motorway_junction",1.3138443,51.1522435
"306263479",NA,"motorway_junction",NA,"motorway_junction",0.5560099,51.6289595
"308247812","Hatfield North","motorway_junction","20B","motorway_junction",0.6040089,51.7788541
"309752743",NA,"motorway_junction","32A","motorway_junction",1.0482229,51.997738
"309929176",NA,"motorway_junction",NA,"motorway_junction",1.2261379,52.0246997
"312224722","King William","motorway_junction",NA,"motorway_junction",0.544774,51.865981
"314669571","Severalls Interchange","motorway_junction","28","motorway_junction",0.9073596,51.9253845
"316121810",NA,"motorway_junction",NA,"motorway_junction",0.5132303,51.7095466
"316944911","Rayleigh Weir","motorway_junction",NA,"motorway_junction",0.6060925,51.5763429
"317270316",NA,"motorway_junction",NA,"motorway_junction",0.5121855,51.3064049
"317274623",NA,"motorway_junction","4","motorway_junction",0.578307,51.334707
"318724884",NA,"motorway_junction","31","motorway_junction",1.0092809,51.9872851
"319481345","Breakspears","motorway_junction","8","motorway_junction",-0.4038836,51.7455969
"319481346","Breakspears","motorway_junction","8","motorway_junction",-0.4154294,51.7541659
"319607583","Kelvedon North","motorway_junction","24","motorway_junction",0.7284607,51.8507131
"322239490","Duxford Interchange","motorway_junction","10","motorway_junction",0.1405542,52.0955628
"329506184","Capability Green","motorway_junction",NA,"motorway_junction",-0.4048298,51.8656238
"329506424","Capability Green","motorway_junction",NA,"motorway_junction",-0.4105,51.8612813
"331192092",NA,"motorway_junction",NA,"motorway_junction",-0.7034975,52.0328211
"339209863",NA,"motorway_junction",NA,"motorway_junction",0.5132651,51.7098055
"339533159","West Ilsley Interchange","motorway_junction",NA,"motorway_junction",-1.2985872,51.5543019
"340174310",NA,"motorway_junction",NA,"motorway_junction",-0.7532173,52.0511481
"340174344",NA,"motorway_junction",NA,"motorway_junction",-0.7543821,52.0572265
"345309738","Medway Services","motorway_junction",NA,"motorway_junction",0.6046828,51.3406717
"345310647","Medway Services","motorway_junction",NA,"motorway_junction",0.6126372,51.3418463
"347305862","Gillingham Gate","motorway_junction",NA,"motorway_junction",0.5503383,51.3959524
"348004431","Litchfield Interchange","motorway_junction",NA,"motorway_junction",-1.3414465,51.2814628
"351926291","Marks Tey","motorway_junction","25","motorway_junction",0.7788727,51.8769947
"358000821",NA,"motorway_junction",NA,"motorway_junction",1.0072086,51.3384503
"360580251","Gads Hill","motorway_junction",NA,"motorway_junction",0.4754313,51.4111443
"361216709",NA,"motorway_junction",NA,"motorway_junction",0.0269717,51.5172283
"361217191",NA,"motorway_junction",NA,"motorway_junction",0.0373312,51.5182659
"370327551",NA,"motorway_junction",NA,"motorway_junction",-0.7563547,52.0591253
"385963214","Beckton Alps","motorway_junction",NA,"motorway_junction",0.0536984,51.5195614
"385972867","Beckton Alps","motorway_junction",NA,"motorway_junction",0.06415,51.5220407
"385978571","Movers Lane","motorway_junction",NA,"motorway_junction",0.0881508,51.5293685
"385978675","Movers Lane","motorway_junction",NA,"motorway_junction",0.0976109,51.5308591
"388380761",NA,"motorway_junction",NA,"motorway_junction",-0.7743511,52.0278051
"389788213",NA,"motorway_junction",NA,"motorway_junction",-0.7755547,52.0256404
"390437369","Caldecotte Interchange","motorway_junction",NA,"motorway_junction",-0.7100727,52.0045666
"394914448",NA,"motorway_junction",NA,"motorway_junction",-0.7226473,52.0257379
"395338864",NA,"motorway_junction",NA,"motorway_junction",-0.7337745,52.0337566
"401534637",NA,"motorway_junction",NA,"motorway_junction",-0.7804542,52.0491385
"401621775",NA,"motorway_junction",NA,"motorway_junction",-0.7092359,52.048017
"402325270",NA,"motorway_junction",NA,"motorway_junction",-0.7603036,52.0063461
"403230214",NA,"motorway_junction",NA,"motorway_junction",-0.6880542,52.0225286
"403230226",NA,"motorway_junction",NA,"motorway_junction",-0.6882504,52.0223636
"409787208",NA,"motorway_junction",NA,"motorway_junction",-0.7468312,52.0150997
"410079468",NA,"motorway_junction",NA,"motorway_junction",-0.7099179,52.0300225
"413173137",NA,"motorway_junction",NA,"motorway_junction",0.5087529,51.7506407
"413349180",NA,"motorway_junction",NA,"motorway_junction",-0.4090342,51.6839291
"423009845",NA,"motorway_junction",NA,"motorway_junction",0.4798178,51.8734448
"427156232",NA,"motorway_junction",NA,"motorway_junction",-0.7675025,52.0316818
"427156339",NA,"motorway_junction",NA,"motorway_junction",-0.7636044,52.030007
"427613188",NA,"motorway_junction",NA,"motorway_junction",-0.7614331,52.0277932
"427613201",NA,"motorway_junction",NA,"motorway_junction",-0.7694083,52.0310943
"440360019",NA,"motorway_junction",NA,"motorway_junction",-0.0105732,51.5228907
"440427124",NA,"motorway_junction",NA,"motorway_junction",0.6657714,51.8165327
"440478650",NA,"motorway_junction",NA,"motorway_junction",-0.7532626,52.0107863
"442664459","Danson","motorway_junction",NA,"motorway_junction",0.1165878,51.4501215
"443273718",NA,"motorway_junction",NA,"motorway_junction",0.125943,51.5029857
"446044164",NA,"motorway_junction",NA,"motorway_junction",0.0397991,51.5827156
"450790413",NA,"motorway_junction",NA,"motorway_junction",-0.2526034,51.5615839
"450932215",NA,"motorway_junction",NA,"motorway_junction",-0.226617,51.5729442
"450953327","Brent Cross Interchange","motorway_junction",NA,"motorway_junction",-0.2150554,51.5752417
"462258056",NA,"motorway_junction",NA,"motorway_junction",-0.7041028,52.0508602
"462662451",NA,"motorway_junction",NA,"motorway_junction",-0.7926524,51.9878054
"479891913","Fairglen Interchange","motorway_junction",NA,"motorway_junction",0.5643034,51.5881823
"491533618",NA,"motorway_junction",NA,"motorway_junction",-0.7793209,52.0206816
"491574154",NA,"motorway_junction",NA,"motorway_junction",-0.7553606,52.0231527
"491574157",NA,"motorway_junction",NA,"motorway_junction",-0.7474141,52.0180511
"535584621",NA,"motorway_junction",NA,"motorway_junction",-0.6835337,52.0334485
"543384025","Milton Interchange","motorway_junction",NA,"motorway_junction",-1.3051885,51.6212609
"560580651","Newport Pagnell Services","motorway_junction",NA,"motorway_junction",-0.7448455,52.0810439
"567503122",NA,"motorway_junction",NA,"motorway_junction",0.9541313,51.3139794
"567503185",NA,"motorway_junction",NA,"motorway_junction",0.9678114,51.3182796
"568135074",NA,"motorway_junction",NA,"motorway_junction",-0.761905,52.0606905
"574850545",NA,"motorway_junction",NA,"motorway_junction",0.9998294,51.2891376
"586317182","Falconwood","motorway_junction",NA,"motorway_junction",0.0895697,51.4554532
"588397536","Staples Corner","motorway_junction","1","motorway_junction",-0.2274113,51.5724265
"650927640","The Thicket","motorway_junction","9B","motorway_junction",-0.7668359,51.5216221
"653307950",NA,"motorway_junction",NA,"motorway_junction",-0.8733131,51.1876986
"666787151","Bluebell","motorway_junction",NA,"motorway_junction",0.507445,51.3442513
"672291378","Aylesford","motorway_junction","6","motorway_junction",0.4849394,51.2962822
"672334762","Sandling","motorway_junction","6","motorway_junction",0.5145584,51.2986337
"781711869","Severalls Interchange","motorway_junction","28","motorway_junction",0.8943169,51.9240142
"789812163",NA,"motorway_junction",NA,"motorway_junction",-1.0343519,51.424459
"791796998",NA,"motorway_junction",NA,"motorway_junction",-0.3699266,51.9210981
"825308556",NA,"motorway_junction",NA,"motorway_junction",-1.2785801,51.1831124
"833895590",NA,"motorway_junction",NA,"motorway_junction",-0.7964295,51.9876258
"866959276",NA,"motorway_junction",NA,"motorway_junction",-0.5295473,51.2695045
"910373055",NA,"motorway_junction",NA,"motorway_junction",1.2449622,51.3590897
"920110005","Clapham Hill","motorway_junction",NA,"motorway_junction",1.0263758,51.3397924
"920662934","Three Crutches","motorway_junction","1","motorway_junction",0.4437252,51.3996122
"998992658","Marylands Interchange","motorway_junction","12","motorway_junction",0.3509857,51.647295
"1020160878","Marston Junction","motorway_junction",NA,"motorway_junction",-0.5491765,52.0678015
"1030091256","Toddington","motorway_junction","12","motorway_junction",-0.5225254,51.9642075
"1042264686",NA,"motorway_junction",NA,"motorway_junction",-0.6879376,52.0167464
"1057106852","Pitsea","motorway_junction",NA,"motorway_junction",0.5114011,51.5647657
"1064679477","Marston Junction","motorway_junction",NA,"motorway_junction",-0.559606,52.0649666
"1075841165",NA,"motorway_junction",NA,"motorway_junction",1.0041372,51.3363428
"1122653922",NA,"motorway_junction",NA,"motorway_junction",-0.6029758,52.0339323
"1139935614",NA,"motorway_junction",NA,"motorway_junction",-1.4129835,51.1888441
"1139935705",NA,"motorway_junction",NA,"motorway_junction",-1.4074433,51.1868012
"1162108723",NA,"motorway_junction",NA,"motorway_junction",-0.5336453,51.7420073
"1181038502",NA,"motorway_junction",NA,"motorway_junction",-0.7531939,52.0517163
"1183492794",NA,"motorway_junction",NA,"motorway_junction",-0.69804,52.0336584
"1183492804",NA,"motorway_junction",NA,"motorway_junction",-0.6975568,52.0335233
"1195709350",NA,"motorway_junction",NA,"motorway_junction",-0.7552137,52.0233838
"1198628119","Stanford Interchange (Manorway)","motorway_junction",NA,"motorway_junction",0.4238842,51.5239074
"1199142924",NA,"motorway_junction",NA,"motorway_junction",-0.7171194,52.0191813
"1222238827","Fortune of War","motorway_junction",NA,"motorway_junction",0.4245991,51.5840942
"1240373881",NA,"motorway_junction",NA,"motorway_junction",0.4176314,51.4006599
"1240406950","Gillingham Gate","motorway_junction",NA,"motorway_junction",0.5481438,51.3969979
"1242644477",NA,"motorway_junction",NA,"motorway_junction",1.1987297,51.1831407
"1242644522",NA,"motorway_junction",NA,"motorway_junction",1.1998116,51.1825212
"1242644545",NA,"motorway_junction",NA,"motorway_junction",1.1800684,51.1994905
"1242650434",NA,"motorway_junction",NA,"motorway_junction",1.138004,51.2371438
"1242843083",NA,"motorway_junction",NA,"motorway_junction",0.9897909,51.3269917
"1275848045","Sadlers Farm","motorway_junction",NA,"motorway_junction",0.5426152,51.5716447
"1275848050","Sadlers Farm","motorway_junction",NA,"motorway_junction",0.5298111,51.5647563
"1282027230",NA,"motorway_junction",NA,"motorway_junction",-0.7395761,52.0386545
"1299307496",NA,"motorway_junction",NA,"motorway_junction",1.1914381,51.3633178
"1316172378",NA,"motorway_junction",NA,"motorway_junction",1.2498802,51.3585607
"1355637611","Leybourne","motorway_junction","4","motorway_junction",0.4171119,51.3110884
"1367727556","Brook Street","motorway_junction","11","motorway_junction",0.2664618,51.6109403
"1369426737","Hazel Grove Junction","motorway_junction",NA,"motorway_junction",-0.7383074,51.1082723
"1372157334","Hook Junction","motorway_junction",NA,"motorway_junction",-0.321768,51.3759781
"1374534413","Holyport","motorway_junction","8/9","motorway_junction",-0.7308346,51.4970548
"1427348250",NA,"motorway_junction",NA,"motorway_junction",-1.4560435,51.2002121
"1441015292",NA,"motorway_junction",NA,"motorway_junction",0.0285577,51.5960972
"1447892067","Great Cambridge Road Roundabout","motorway_junction",NA,"motorway_junction",-0.0802101,51.6149789
"1448914486",NA,"motorway_junction",NA,"motorway_junction",-1.3299042,51.7283964
"1452626238","Apex Corner","motorway_junction",NA,"motorway_junction",-0.374018,51.4386519
"1454265629","Malden Junction","motorway_junction",NA,"motorway_junction",-0.2599009,51.393157
"1454268304","Malden Junction","motorway_junction",NA,"motorway_junction",-0.2489178,51.396037
"1460628264","Hook Junction","motorway_junction",NA,"motorway_junction",-0.2985459,51.3741042
"1460840347","Darenth","motorway_junction","2","motorway_junction",0.2393381,51.4309723
"1462432215","Andover Road Interchange","motorway_junction",NA,"motorway_junction",-1.3577465,51.3629736
"1469825768",NA,"motorway_junction",NA,"motorway_junction",-0.2342652,51.5873026
"1478963139","Swakeleys Roundabout","motorway_junction",NA,"motorway_junction",-0.4636573,51.5571225
"1517554590","Thorpe","motorway_junction","2","motorway_junction",-0.5294323,51.4009895
"1519961498","Stock Road Interchange","motorway_junction","16","motorway_junction",0.4588254,51.6882477
"1538645985",NA,"motorway_junction",NA,"motorway_junction",0.5485249,51.5230885
"1567813789","Dockspur","motorway_junction","60","motorway_junction",1.331684,51.9792302
"1582524511","Hook","motorway_junction","5","motorway_junction",-0.9670962,51.2695815
"1583869963","Aldermaston Road Roundabout","motorway_junction",NA,"motorway_junction",-1.1096092,51.2762169
"1583869965",NA,"motorway_junction",NA,"motorway_junction",-1.1059569,51.276619
"1584343920","Aldermaston Road Roundabout","motorway_junction",NA,"motorway_junction",-1.0968043,51.2781463
"1585384553","Three Mile Cross","motorway_junction","11","motorway_junction",-0.9647675,51.411681
"1586039985","Hook","motorway_junction","5","motorway_junction",-0.9519123,51.2731446
"1587599027","Leatherhead","motorway_junction","9","motorway_junction",-0.3376481,51.3156895
"1588137496",NA,"motorway_junction",NA,"motorway_junction",-1.106108,51.2600763
"1588846676","Runnymede","motorway_junction","13","motorway_junction",-0.5259874,51.4474695
"1588846751","Poyle","motorway_junction","14","motorway_junction",-0.5153219,51.4623831
"1588921432","Maple Cross","motorway_junction","17","motorway_junction",-0.5146863,51.6341136
"1588921538","Chiswell","motorway_junction","21","motorway_junction",-0.3928802,51.7150364
"1588921630","Denham","motorway_junction","16","motorway_junction",-0.5276119,51.5545233
"1588921664","Chandlers Cross","motorway_junction","19","motorway_junction",-0.4575598,51.6778328
"1589738317","Chiswell","motorway_junction","21","motorway_junction",-0.3733301,51.715465
"1590587173","Pepperstock","motorway_junction","10","motorway_junction",-0.4289876,51.8593457
"1594841278","Fleet Services","motorway_junction",NA,"motorway_junction",-0.8609243,51.2953599
"1594841300","Fleet Services","motorway_junction",NA,"motorway_junction",-0.8492485,51.2969015
"1594841396","Minley","motorway_junction","4A","motorway_junction",-0.7928715,51.3027064
"1595057806","Frimley","motorway_junction","4","motorway_junction",-0.7646356,51.3136435
"1595261953","Thorpe","motorway_junction","2","motorway_junction",-0.5469432,51.3991554
"1595261976","Bagshot","motorway_junction","3","motorway_junction",-0.6729584,51.3582105
"1596367540","Sunbury Cross","motorway_junction","1","motorway_junction",-0.4241062,51.4166284
"1596367541","Sunbury Cross","motorway_junction","1","motorway_junction",-0.4125923,51.4216072
"1597393085","Tibbet's Corner","motorway_junction",NA,"motorway_junction",-0.2206138,51.4493414
"1597754113","Bricket Wood","motorway_junction","21A","motorway_junction",-0.3795911,51.7164788
"1597892105","Wincheap","motorway_junction",NA,"motorway_junction",1.0677517,51.2657129
"1597892337",NA,"motorway_junction",NA,"motorway_junction",1.0171614,51.2868102
"1597893017",NA,"motorway_junction",NA,"motorway_junction",0.9357579,51.3099743
"1597893038",NA,"motorway_junction",NA,"motorway_junction",0.9697449,51.3188139
"1598164584","Pepperstock","motorway_junction","10","motorway_junction",-0.4218291,51.846904
"1600203593",NA,"motorway_junction",NA,"motorway_junction",-0.7394268,51.2972843
"1600203694",NA,"motorway_junction",NA,"motorway_junction",-0.7454442,51.3077511
"1600203866",NA,"motorway_junction",NA,"motorway_junction",-0.749207,51.3119376
"1600203930",NA,"motorway_junction",NA,"motorway_junction",-0.7514561,51.3140838
"1600256039","Furze Hill","motorway_junction","14","motorway_junction",0.4069509,51.6899766
"1600799623",NA,"motorway_junction",NA,"motorway_junction",-0.7343337,51.2735268
"1600799670",NA,"motorway_junction",NA,"motorway_junction",-0.7347806,51.2779145
"1601277883",NA,"motorway_junction",NA,"motorway_junction",-0.7354957,51.2378394
"1601342914",NA,"motorway_junction",NA,"motorway_junction",-1.3678963,51.1797485
"1601342941",NA,"motorway_junction",NA,"motorway_junction",-1.3767105,51.1810765
"1601342966",NA,"motorway_junction",NA,"motorway_junction",-1.397358,51.1826261
"1601343003",NA,"motorway_junction",NA,"motorway_junction",-1.4075144,51.1866538
"1601343216",NA,"motorway_junction",NA,"motorway_junction",-1.4372621,51.1987642
"1602560532","Priory Wood","motorway_junction",NA,"motorway_junction",0.2067865,51.8758704
"1608908333","Denham","motorway_junction","1A","motorway_junction",-0.5185445,51.5606606
"1608981964","Leagrave Interchange","motorway_junction","11","motorway_junction",-0.4683364,51.8892632
"1609258567","Denham","motorway_junction","1A","motorway_junction",-0.5502016,51.5632783
"1609333848","Handy Cross","motorway_junction","4","motorway_junction",-0.761652,51.6132996
"1610002103","Lewknor","motorway_junction","6","motorway_junction",-0.9590824,51.6699041
"1610016586","Three Pigeons","motorway_junction","7","motorway_junction",-1.0519246,51.7228212
"1610031587","Wheatley","motorway_junction","8","motorway_junction",-1.0744556,51.7315794
"1611097493","Wendlebury","motorway_junction","9","motorway_junction",-1.19474,51.8656402
"1611118980","Ardley","motorway_junction","10","motorway_junction",-1.2027017,51.94235
"1616499534",NA,"motorway_junction",NA,"motorway_junction",1.1218082,51.2539375
"1617245086",NA,"motorway_junction",NA,"motorway_junction",-0.5121189,51.7440171
"1617246572",NA,"motorway_junction",NA,"motorway_junction",-0.5121066,51.7441634
"1617310894",NA,"motorway_junction",NA,"motorway_junction",-0.4786229,51.7335072
"1617346981",NA,"motorway_junction",NA,"motorway_junction",-0.2088973,51.7738744
"1624967059",NA,"motorway_junction",NA,"motorway_junction",-0.7618748,51.4121981
"1625158496","Holyport","motorway_junction","8/9","motorway_junction",-0.7163048,51.4994435
"1625254699","Poyle","motorway_junction","14","motorway_junction",-0.5005741,51.4736811
"1633384063","Cathedral Turn","motorway_junction",NA,"motorway_junction",-0.5964066,51.243534
"1633384122",NA,"motorway_junction",NA,"motorway_junction",-0.5931546,51.2473825
"1636572701","Milford Junction","motorway_junction",NA,"motorway_junction",-0.6560851,51.1763229
"1638915385","Crawley","motorway_junction","10","motorway_junction",-0.1401989,51.1365119
"1638915431","Gatwick","motorway_junction","9","motorway_junction",-0.1359303,51.1548154
"1639108460","Godstone","motorway_junction","6","motorway_junction",-0.0566138,51.2584611
"1639388752","Brenley Corner","motorway_junction","7","motorway_junction",0.9282251,51.3037838
"1639388758","Bluebell","motorway_junction","3","motorway_junction",0.5130557,51.3311865
"1639388810","Stockbury","motorway_junction","5","motorway_junction",0.668344,51.3275759
"1639388841","Stockbury","motorway_junction","5","motorway_junction",0.6576238,51.3317609
"1639388868",NA,"motorway_junction","4","motorway_junction",0.5897043,51.3373071
"1639388876","Merrals Shaw","motorway_junction","2","motorway_junction",0.4633099,51.3890188
"1643469193","Runnymede","motorway_junction","13","motorway_junction",-0.532826,51.4390136
"1643698212","Coleman's","motorway_junction","22","motorway_junction",0.6569988,51.8122302
"1643979893",NA,"motorway_junction",NA,"motorway_junction",-0.4921104,51.4671955
"1644153922",NA,"motorway_junction",NA,"motorway_junction",0.6666376,51.8167691
"1647046888",NA,"motorway_junction",NA,"motorway_junction",-0.4962881,51.4654515
"1650476094","Wisley","motorway_junction",NA,"motorway_junction",-0.4531684,51.3191255
"1650476101","Wisley","motorway_junction",NA,"motorway_junction",-0.4475446,51.3250862
"1650476251","Painshill","motorway_junction",NA,"motorway_junction",-0.4225287,51.3365645
"1650615749","Esher Common","motorway_junction",NA,"motorway_junction",-0.3554194,51.349389
"1651300660","Esher Common","motorway_junction",NA,"motorway_junction",-0.3698546,51.3474966
"1659471136","Loddon Bridge","motorway_junction",NA,"motorway_junction",-0.8873004,51.4399113
"1660727447","Ardley","motorway_junction","10","motorway_junction",-1.2109589,51.9551415
"1666255333","Ridgmont Interchange","motorway_junction","13","motorway_junction",-0.5980845,52.0251513
"1667194081","Seale","motorway_junction",NA,"motorway_junction",-0.718507,51.2262802
"1667194367",NA,"motorway_junction",NA,"motorway_junction",-0.6606683,51.2268271
"1667650213",NA,"motorway_junction",NA,"motorway_junction",-0.2419671,51.4011189
"1667650262","Shannon Corner","motorway_junction",NA,"motorway_junction",-0.2470984,51.3970838
"1668991650",NA,"motorway_junction",NA,"motorway_junction",-0.3981468,51.4313698
"1670306189",NA,"motorway_junction",NA,"motorway_junction",-0.7681252,52.000517
"1670388448",NA,"motorway_junction",NA,"motorway_junction",-0.6318314,51.2230908
"1674543818",NA,"motorway_junction",NA,"motorway_junction",-0.4055488,51.4264631
"1678368878","Brent Cross Interchange","motorway_junction",NA,"motorway_junction",-0.2203372,51.5753514
"1685913518",NA,"motorway_junction",NA,"motorway_junction",-1.3759696,51.1811004
"1686904767",NA,"motorway_junction",NA,"motorway_junction",0.3106383,51.4304455
"1690901697","Denham Roundabout","motorway_junction","1","motorway_junction",-0.4857197,51.5603477
"1690901702","Denham Roundabout","motorway_junction","1","motorway_junction",-0.5074486,51.5617754
"1690901753","Denham","motorway_junction","16","motorway_junction",-0.5317576,51.5613575
"1690901757","Beaconsfield","motorway_junction","2","motorway_junction",-0.6205764,51.5921376
"1697713837","Gypsy Corner","motorway_junction",NA,"motorway_junction",-0.2637844,51.5218834
"1699556046",NA,"motorway_junction",NA,"motorway_junction",0.3570245,51.5793422
"1702561960",NA,"motorway_junction",NA,"motorway_junction",-0.7797596,52.0206302
"1725402052",NA,"motorway_junction",NA,"motorway_junction",-0.7267653,52.016575
"1727575583",NA,"motorway_junction",NA,"motorway_junction",-0.4727165,51.3089652
"1731068558","Coppid Beech Roundabout","motorway_junction",NA,"motorway_junction",-0.8025218,51.4152212
"1750307112",NA,"motorway_junction",NA,"motorway_junction",0.3304321,51.576548
"1750331027",NA,"motorway_junction",NA,"motorway_junction",0.3158047,51.5749745
"1750331050",NA,"motorway_junction",NA,"motorway_junction",0.3122646,51.5749497
"1762929330","Ossie Garvin Roundabout","motorway_junction",NA,"motorway_junction",-0.3978322,51.5196804
"1770049829","Staples Corner","motorway_junction","1","motorway_junction",-0.2361603,51.5767624
"1777475844",NA,"motorway_junction",NA,"motorway_junction",-0.2794675,51.5266416
"1786687608","Marsh Leys Roundabout","motorway_junction",NA,"motorway_junction",-0.5106474,52.099396
"1815548909","Winnersh","motorway_junction",NA,"motorway_junction",-0.8490622,51.429465
"1881071141",NA,"motorway_junction",NA,"motorway_junction",-0.0139379,51.5071018
"1881081584",NA,"motorway_junction",NA,"motorway_junction",-0.0119328,51.5072855
"1881096460",NA,"motorway_junction",NA,"motorway_junction",-0.0216064,51.5084725
"1889049771",NA,"motorway_junction",NA,"motorway_junction",-0.7199328,52.0259493
"1892197410","Newport Pagnell Services","motorway_junction",NA,"motorway_junction",-0.7506183,52.0850108
"1892468000","Brook Street","motorway_junction","11","motorway_junction",0.2570699,51.6064933
"1904642191",NA,"motorway_junction",NA,"motorway_junction",-0.7628457,52.0296792
"1911697066",NA,"motorway_junction",NA,"motorway_junction",-0.7340556,52.0313557
"1911697078",NA,"motorway_junction",NA,"motorway_junction",-0.7324923,52.02745
"1925877468","Sevington","motorway_junction","10A","motorway_junction",0.9259746,51.1305212
"1974291480",NA,"motorway_junction",NA,"motorway_junction",-1.3888779,51.1825986
"1982905278","Cobham Services","motorway_junction",NA,"motorway_junction",-0.4124859,51.3075086
"1983555228",NA,"motorway_junction",NA,"motorway_junction",-0.1502444,51.6072248
"2015848786","Merstham","motorway_junction","7","motorway_junction",-0.1117391,51.2599316
"2083339856",NA,"motorway_junction",NA,"motorway_junction",-0.7037455,52.0508241
"2140482757",NA,"motorway_junction",NA,"motorway_junction",-0.007042,51.509631
"2142896746",NA,"motorway_junction",NA,"motorway_junction",-0.7030288,52.0327191
"2173239696",NA,"motorway_junction",NA,"motorway_junction",-1.0757345,51.2584366
"2206072158",NA,"motorway_junction",NA,"motorway_junction",-1.0714968,51.2608309
"2475477052",NA,"motorway_junction",NA,"motorway_junction",0.0046125,51.514825
"2521670238","Littlebrook","motorway_junction","1A","motorway_junction",0.2444914,51.4540866
"2531446273","Kidney Wood","motorway_junction",NA,"motorway_junction",-0.4136973,51.8598994
"2535881011","Gypsy Corner","motorway_junction",NA,"motorway_junction",-0.2623581,51.5191981
"2546169674",NA,"motorway_junction",NA,"motorway_junction",0.0861527,51.4269577
"2617842490",NA,"motorway_junction",NA,"motorway_junction",-0.6245035,51.4804582
"2622876369",NA,"motorway_junction",NA,"motorway_junction",-0.3960089,51.4322613
"2734620911",NA,"motorway_junction",NA,"motorway_junction",-0.2777779,51.5388736
"2761664715",NA,"motorway_junction",NA,"motorway_junction",-0.253505,51.5595661
"2761758288",NA,"motorway_junction",NA,"motorway_junction",-0.2538024,51.5590551
"2777490977","Kidney Wood","motorway_junction",NA,"motorway_junction",-0.4174864,51.8577775
"2848171963","The Clock","motorway_junction","6","motorway_junction",-0.2092946,51.829176
"2848173699","Corey's Mill","motorway_junction","8","motorway_junction",-0.2213476,51.9252093
"3075425909",NA,"motorway_junction",NA,"motorway_junction",-0.661493,51.2270049
"3075554907","Cathedral Turn","motorway_junction",NA,"motorway_junction",-0.6011353,51.2383845
"3411573923",NA,"motorway_junction",NA,"motorway_junction",-0.7778792,52.0436454
"3411573926",NA,"motorway_junction",NA,"motorway_junction",-0.7766947,52.0425525
"3741500653","Longfield Road","motorway_junction",NA,"motorway_junction",0.3060088,51.1607095
"3741500661",NA,"motorway_junction",NA,"motorway_junction",0.3060063,51.1625861
"3741500678",NA,"motorway_junction",NA,"motorway_junction",0.3045615,51.1684987
"3741500690",NA,"motorway_junction",NA,"motorway_junction",0.2989686,51.1741409
"3741500758","Vauxhall","motorway_junction",NA,"motorway_junction",0.2831464,51.1804266
"3741500798","Vauxhall","motorway_junction",NA,"motorway_junction",0.2787513,51.1808778
"3741873584","Longfield Road","motorway_junction",NA,"motorway_junction",0.3030275,51.1526626
"3869323660","Painshill","motorway_junction",NA,"motorway_junction",-0.4340089,51.3324545
"3975659974","Caldecotte Interchange","motorway_junction",NA,"motorway_junction",-0.7157127,52.011541
"4158140007","Polish War Memorial","motorway_junction",NA,"motorway_junction",-0.3923472,51.5474481
"4217102735",NA,"motorway_junction",NA,"motorway_junction",-0.7765579,52.0419464
"4238438581","Chilton Junction","motorway_junction",NA,"motorway_junction",-1.2933028,51.5765817
"4270665662","Sandling","motorway_junction","6 & 5","motorway_junction",0.5207722,51.2986741
"4347018968",NA,"motorway_junction","7A","motorway_junction",0.1739508,51.7947703
"4347019501",NA,"motorway_junction","7A","motorway_junction",0.1684021,51.7837945
"4654733988","Chieveley Interchange","motorway_junction",NA,"motorway_junction",-1.3201601,51.439536
"4805471390",NA,"motorway_junction",NA,"motorway_junction",-0.789543,52.0523207
"4883128299","Chalton Interchange","motorway_junction","11A","motorway_junction",-0.4948041,51.926719
"5809332037","Sevington","motorway_junction","10A","motorway_junction",0.9153069,51.1350731
"5809349635",NA,"motorway_junction",NA,"motorway_junction",-0.5257756,51.6171973
"5938833484","Beaconsfield","motorway_junction","2","motorway_junction",-0.6339582,51.5962738
"5939561214","Thorney","motorway_junction","15","motorway_junction",-0.4957406,51.5007462
"6020113693","Bagshot","motorway_junction","3","motorway_junction",-0.6867153,51.3534525
"6025284065","Donnington Interchange","motorway_junction",NA,"motorway_junction",-1.3207384,51.4371184
"6166909747",NA,"motorway_junction",NA,"motorway_junction",-1.3111746,51.4569919
"6250236319","Hyde Park Corner","motorway_junction",NA,"motorway_junction",-0.1476603,51.5041674
"6282838743",NA,"motorway_junction",NA,"motorway_junction",-0.2401907,51.569042
"6362063485",NA,"motorway_junction",NA,"motorway_junction",-0.7792797,52.0557359
"6390467407","Brook Street","motorway_junction","28","motorway_junction",0.2653979,51.6058744
"6390672090","Theydon","motorway_junction","27","motorway_junction",0.1096718,51.6828635
"6394377708","Theydon","motorway_junction","27","motorway_junction",0.1141023,51.6812981
"6394496693","Cranham","motorway_junction","29","motorway_junction",0.2892637,51.5648607
"6394782090","Mardyke","motorway_junction","30","motorway_junction",0.2682331,51.5015959
"6472523305",NA,"motorway_junction",NA,"motorway_junction",-0.7806294,52.0488595
"6915702562","Kenninghall","motorway_junction",NA,"motorway_junction",-0.0457772,51.6112489
"7083276590",NA,"motorway_junction",NA,"motorway_junction",-0.6165309,52.0290215
"7550904791",NA,"motorway_junction",NA,"motorway_junction",-0.7254209,52.020184
"7550904804",NA,"motorway_junction",NA,"motorway_junction",-0.7257484,52.0200735
"7550904822",NA,"motorway_junction",NA,"motorway_junction",-0.7270883,52.0232906
"7550904829",NA,"motorway_junction",NA,"motorway_junction",-0.72701,52.0235308
"7551153936",NA,"motorway_junction",NA,"motorway_junction",-0.7493863,52.0196697
"7699796368",NA,"motorway_junction",NA,"motorway_junction",-0.7428559,52.019322
"8778864524",NA,"motorway_junction",NA,"motorway_junction",-0.0403986,51.4840038
"8778864525",NA,"motorway_junction",NA,"motorway_junction",-0.0398973,51.4838467
"9038473791",NA,"motorway_junction",NA,"motorway_junction",-0.775098,52.025977
"9476706800","Stockbury","motorway_junction",NA,"motorway_junction",0.6551984,51.3244214
"9549061291",NA,"motorway_junction",NA,"motorway_junction",-0.1556632,51.6055765
"9695481842",NA,"motorway_junction",NA,"motorway_junction",-0.7203579,52.0182374
"9695481845",NA,"motorway_junction",NA,"motorway_junction",-0.713408,52.0202414
"9703228266",NA,"motorway_junction",NA,"motorway_junction",-0.7349093,52.0151204
"9718482128",NA,"motorway_junction",NA,"motorway_junction",-0.6914641,52.0296149
"9732127245",NA,"motorway_junction",NA,"motorway_junction",-0.7431512,52.0193437
"9737819989",NA,"motorway_junction",NA,"motorway_junction",-0.7563353,52.0089084
"9737819992",NA,"motorway_junction",NA,"motorway_junction",-0.7761972,51.9950176
"9737881209",NA,"motorway_junction",NA,"motorway_junction",-0.7019291,52.0112832
"9751242850",NA,"motorway_junction",NA,"motorway_junction",-0.7280493,52.0470639
"9751370586",NA,"motorway_junction",NA,"motorway_junction",-0.741891,52.0149171
"9751370587",NA,"motorway_junction",NA,"motorway_junction",-0.7419908,52.0153039
"9751486687",NA,"motorway_junction",NA,"motorway_junction",-0.756267,52.0594391
"9787687285",NA,"motorway_junction",NA,"motorway_junction",-0.75451,52.0568884
"9953324228","Copdock","motorway_junction","33","motorway_junction",1.0974385,52.0355644
"9973373090",NA,"motorway_junction",NA,"motorway_junction",0.9342458,51.3092461
"10295337077",NA,"motorway_junction","7A","motorway_junction",0.1725599,51.7920561
"11063330911",NA,"motorway_junction",NA,"motorway_junction",-0.2492571,51.656105
"11184042909",NA,"motorway_junction",NA,"motorway_junction",0.536859,51.5896242
"11412882620",NA,"motorway_junction",NA,"motorway_junction",-0.2164331,52.032283
"12040612956",NA,"motorway_junction",NA,"motorway_junction",-1.3370904,51.1987214
"12040612960",NA,"motorway_junction",NA,"motorway_junction",-1.3369701,51.1994833
"12760028711","Addington","motorway_junction","3","motorway_junction",0.3624977,51.3078223
"99939",NA,"traffic_signals",NA,"traffic_signals",-0.1554618,51.5224429
"101837",NA,"traffic_signals",NA,"traffic_signals",-0.1548939,51.5372959
"101875",NA,"traffic_signals",NA,"traffic_signals",-0.1654732,51.5281516
"101984",NA,"traffic_signals",NA,"traffic_signals",-0.1451295,51.5237237
"105123",NA,"traffic_signals",NA,"traffic_signals",-0.034422,51.4607512
"106927",NA,"traffic_signals",NA,"traffic_signals",-0.0421099,51.5107714
"107551",NA,"traffic_signals",NA,"traffic_signals",-0.0482907,51.4938105
"107746",NA,"traffic_signals",NA,"traffic_signals",-0.1165399,51.5004298
"107888",NA,"traffic_signals",NA,"traffic_signals",-0.1242617,51.5299375
"108160",NA,"traffic_signals",NA,"traffic_signals",-0.0042193,51.5119856
"108671",NA,"traffic_signals",NA,"traffic_signals",-0.0461898,51.5218044
"109194",NA,"traffic_signals",NA,"traffic_signals",-0.1505327,51.5432251
"109201",NA,"traffic_signals",NA,"traffic_signals",-0.1503743,51.5457963
"109624",NA,"traffic_signals",NA,"traffic_signals",-0.1239675,51.5093225
"109645",NA,"traffic_signals",NA,"traffic_signals",-0.1736672,51.4821157
"109657",NA,"traffic_signals",NA,"traffic_signals",-0.1613492,51.5017486
"109854",NA,"traffic_signals",NA,"traffic_signals",-0.1297632,51.4991833
"109922",NA,"traffic_signals",NA,"traffic_signals",-0.2670278,51.4878179
"132370",NA,"traffic_signals",NA,"traffic_signals",-0.0075078,51.5075339
"132371",NA,"traffic_signals",NA,"traffic_signals",-0.0079312,51.5071368
"132484",NA,"traffic_signals",NA,"traffic_signals",0.1178108,51.5323448
"138995",NA,"traffic_signals",NA,"traffic_signals",-0.0391893,51.5117961
"139019",NA,"traffic_signals",NA,"traffic_signals",-0.0358154,51.5125976
"194564",NA,"traffic_signals",NA,"traffic_signals",-1.1983281,51.8695663
"196000",NA,"traffic_signals",NA,"traffic_signals",-0.0410994,51.6810998
"196101",NA,"traffic_signals",NA,"traffic_signals",-0.193124,51.6017249
"196108",NA,"traffic_signals",NA,"traffic_signals",-0.1979855,51.5971222
"196495",NA,"traffic_signals",NA,"traffic_signals",-0.0867104,51.6159859
"196602",NA,"traffic_signals",NA,"traffic_signals",-0.2062217,51.5887844
"196969",NA,"traffic_signals",NA,"traffic_signals",-0.2455508,51.7518879
"196972",NA,"traffic_signals",NA,"traffic_signals",-0.2462768,51.7521023
"196973",NA,"traffic_signals",NA,"traffic_signals",-0.2462977,51.7525613
"196976",NA,"traffic_signals",NA,"traffic_signals",-0.2446041,51.7520106
"197152",NA,"traffic_signals",NA,"traffic_signals",-0.2613308,51.5516036
"197187",NA,"traffic_signals",NA,"traffic_signals",-0.2764535,51.5379362
"197276",NA,"traffic_signals",NA,"traffic_signals",-0.3298973,51.5321169
"197320",NA,"traffic_signals",NA,"traffic_signals",-0.274032,51.5261071
"197362",NA,"traffic_signals",NA,"traffic_signals",-0.2635181,51.5211342
"198043",NA,"traffic_signals",NA,"traffic_signals",-0.1730491,51.485818
"198062",NA,"traffic_signals",NA,"traffic_signals",-0.1754796,51.4894999
"199402",NA,"traffic_signals",NA,"traffic_signals",-0.1236768,51.5795386
"201036",NA,"traffic_signals",NA,"traffic_signals",-0.149966,51.6065724
"201074",NA,"traffic_signals",NA,"traffic_signals",-0.1340599,51.5877182
"201248",NA,"traffic_signals",NA,"traffic_signals",-0.117034,51.6010024
"201966",NA,"traffic_signals",NA,"traffic_signals",-0.2360256,51.6304121
"201984",NA,"traffic_signals",NA,"traffic_signals",-0.2414937,51.6272859
"202048",NA,"traffic_signals",NA,"traffic_signals",-0.2310636,51.58588
"202067",NA,"traffic_signals",NA,"traffic_signals",-0.2273932,51.5725374
"202074",NA,"traffic_signals",NA,"traffic_signals",-0.2301729,51.5720854
"202084",NA,"traffic_signals",NA,"traffic_signals",-0.2321155,51.5714073
"202121",NA,"traffic_signals",NA,"traffic_signals",-0.3785065,51.5425892
"202151",NA,"traffic_signals",NA,"traffic_signals",-0.3902752,51.5363031
"202153",NA,"traffic_signals",NA,"traffic_signals",-0.3902198,51.5357934
"202155",NA,"traffic_signals",NA,"traffic_signals",-0.3908214,51.5356556
"202157",NA,"traffic_signals",NA,"traffic_signals",-0.3913135,51.5360333
"202227",NA,"traffic_signals",NA,"traffic_signals",-0.4106456,51.4912077
"202262",NA,"traffic_signals",NA,"traffic_signals",-0.4056822,51.4717779
"202484",NA,"traffic_signals",NA,"traffic_signals",-0.5094447,51.3743845
"203078",NA,"traffic_signals",NA,"traffic_signals",-0.0653762,51.2591811
"209135",NA,"traffic_signals",NA,"traffic_signals",-0.1659293,51.6293474
"212367",NA,"traffic_signals",NA,"traffic_signals",-0.4489994,51.5483905
"212509",NA,"traffic_signals",NA,"traffic_signals",-0.6295677,51.5917726
"213356",NA,"traffic_signals",NA,"traffic_signals",-1.1948725,51.7590298
"213504",NA,"traffic_signals",NA,"traffic_signals",-1.2501021,51.7341357
"213574",NA,"traffic_signals",NA,"traffic_signals",-1.2973029,51.7562259
"213576",NA,"traffic_signals",NA,"traffic_signals",-1.2952501,51.7557445
"213580",NA,"traffic_signals",NA,"traffic_signals",-1.2954078,51.7558223
"213582",NA,"traffic_signals",NA,"traffic_signals",-1.2971519,51.7555424
"213591",NA,"traffic_signals",NA,"traffic_signals",-1.2935299,51.7533822
"213592",NA,"traffic_signals",NA,"traffic_signals",-1.2933661,51.7533985
"213601",NA,"traffic_signals",NA,"traffic_signals",-1.2759593,51.7524021
"213772",NA,"traffic_signals",NA,"traffic_signals",-1.2024524,51.7294335
"213773",NA,"traffic_signals",NA,"traffic_signals",-1.2030766,51.7296454
"213776",NA,"traffic_signals",NA,"traffic_signals",-1.2020651,51.7299895
"213777",NA,"traffic_signals",NA,"traffic_signals",-1.2019472,51.7297115
"213844",NA,"traffic_signals",NA,"traffic_signals",-1.2810074,51.7881439
"218645",NA,"traffic_signals",NA,"traffic_signals",-0.6168489,51.5024422
"220920",NA,"traffic_signals",NA,"traffic_signals",-0.10814,51.5893555
"222417",NA,"traffic_signals",NA,"traffic_signals",-0.2574916,51.5921283
"222428",NA,"traffic_signals",NA,"traffic_signals",-0.248215,51.5843448
"224701",NA,"traffic_signals",NA,"traffic_signals",-0.2451789,51.5067839
"224773",NA,"traffic_signals",NA,"traffic_signals",-0.2915503,51.511246
"224795",NA,"traffic_signals",NA,"traffic_signals",-0.2821503,51.5132057
"227725",NA,"traffic_signals",NA,"traffic_signals",-0.1126214,51.4679431
"234276",NA,"traffic_signals",NA,"traffic_signals",-0.2965137,51.5008105
"234280",NA,"traffic_signals",NA,"traffic_signals",-0.3058062,51.4983273
"243148",NA,"traffic_signals",NA,"traffic_signals",-0.0558489,51.5581066
"244498",NA,"traffic_signals",NA,"traffic_signals",-0.3712618,51.6703454
"247506",NA,"traffic_signals",NA,"traffic_signals",-0.2432234,51.7608074
"255584",NA,"traffic_signals",NA,"traffic_signals",1.0976668,52.0354188
"270204",NA,"traffic_signals",NA,"traffic_signals",-0.5880158,51.2494302
"274592",NA,"traffic_signals",NA,"traffic_signals",-0.5771441,51.2369664
"274612",NA,"traffic_signals",NA,"traffic_signals",-0.1698516,51.5196918
"275426",NA,"traffic_signals",NA,"traffic_signals",-0.164265,51.516033
"275793",NA,"traffic_signals",NA,"traffic_signals",0.0129372,51.4914185
"276258",NA,"traffic_signals",NA,"traffic_signals",-0.4675071,51.7406386
"276346",NA,"traffic_signals",NA,"traffic_signals",-0.4751675,51.7480441
"276458",NA,"traffic_signals",NA,"traffic_signals",-0.0699069,51.4986926
"276554",NA,"traffic_signals",NA,"traffic_signals",-0.1830571,51.4907686
"276556",NA,"traffic_signals",NA,"traffic_signals",-0.1786377,51.4938562
"276557",NA,"traffic_signals",NA,"traffic_signals",-0.1689042,51.4937438
"278559",NA,"traffic_signals",NA,"traffic_signals",-0.896328,51.4362611
"279131",NA,"traffic_signals",NA,"traffic_signals",-0.9616775,51.4537454
"279158",NA,"traffic_signals",NA,"traffic_signals",-0.9687448,51.4531988
"279190",NA,"traffic_signals",NA,"traffic_signals",-0.9770281,51.4586584
"282230",NA,"traffic_signals",NA,"traffic_signals",-0.2607252,51.5950108
"282245",NA,"traffic_signals",NA,"traffic_signals",-0.2580749,51.5926339
"282265",NA,"traffic_signals",NA,"traffic_signals",-0.2750411,51.6071205
"284033",NA,"traffic_signals",NA,"traffic_signals",-0.4747328,51.3733606
"287394",NA,"traffic_signals",NA,"traffic_signals",-0.5005678,51.4372166
"287822",NA,"traffic_signals",NA,"traffic_signals",-0.4391901,51.4795257
"291810",NA,"traffic_signals",NA,"traffic_signals",-0.5593903,51.3158364
"292413",NA,"traffic_signals",NA,"traffic_signals",-0.2561612,51.4356771
"292702",NA,"traffic_signals",NA,"traffic_signals",-0.2966887,51.4108396
"292708",NA,"traffic_signals",NA,"traffic_signals",-0.3005543,51.4104762
"292729",NA,"traffic_signals",NA,"traffic_signals",-0.3019469,51.4082705
"293730",NA,"traffic_signals",NA,"traffic_signals",-0.3683533,51.4131478
"294673",NA,"traffic_signals",NA,"traffic_signals",-0.3469177,51.4817648
"294901",NA,"traffic_signals",NA,"traffic_signals",-0.3120232,51.4888536
"294944",NA,"traffic_signals",NA,"traffic_signals",-0.2926519,51.4914916
"295510",NA,"traffic_signals",NA,"traffic_signals",-0.3005074,51.4646828
